[{"store_name": "\u0110\u1ec1n Mi\u1ebfu C\u1ed1ng V\u1ecb", "image": "", "description": "", "address": "L\u00e0ng C\u1ed1ng V\u1ecb", "city": "1", "phuong": "7", "loai_hinh": "", "xep_hang": "", "le_hoi": "", "coordinates": "21.0366985040247, 105.80135898178618", "latitude": 21.0366985040247, "link_web": "", "id_detail": "fecf0341-5291-45b2-8fdb-2ef77227def1", "simistorelocator_id": "49ac7258-a241-4b47-8281-2a4d04ff790d", "zoom_level": 14, "longitude": 105.80135898178618}, {"store_name": "\u0110\u1ea5u \u0111ong qu\u00e2n \u1edf \u0110o\u00e0i M\u00f4n", "image": "", "description": "", "address": "", "city": "1", "phuong": "7", "loai_hinh": "", "xep_hang": "", "le_hoi": "", "coordinates": "21.071653113339085, 105.80830234823257", "latitude": 21.071653113339085, "link_web": "", "id_detail": "ab0498ee-a393-4b27-abb7-f9b10ae1e9e7", "simistorelocator_id": "26a8b200-5736-45f2-a4df-019bc01a3710", "zoom_level": 14, "longitude": 105.80830234823257}, {"store_name": "\u0110\u1ec1n V\u0129nh Ph\u00fac", "image": "", "description": "", "address": "V\u0129nh Ph\u00fac Th\u01b0\u1ee3ng", "city": "1", "phuong": "8", "loai_hinh": "", "xep_hang": "", "le_hoi": "", "coordinates": "21.324249073291575, 105.58994418182172", "latitude": 21.324249073291575, "link_web": "", "id_detail": "68a04f03-64ae-49ea-9356-5b8bab917b96", "simistorelocator_id": "9af63284-90ab-475d-9af1-3727c282e776", "zoom_level": 14, "longitude": 105.58994418182172}, {"store_name": "\u0110\u1ec1n V\u0129nh Ph\u00fac", "image": "", "description": "", "address": "", "city": "1", "phuong": "8", "loai_hinh": "", "xep_hang": "", "le_hoi": "", "coordinates": "21.324249073291575, 105.58994418182172", "latitude": 21.324249073291575, "link_web": "", "id_detail": "998d696d-2d27-4e29-acd6-8fdb23fb9837", "simistorelocator_id": "97139ecc-bd98-4ea8-8b74-646f2edb16a0", "zoom_level": 14, "longitude": 105.58994418182172}, {"store_name": "\u0110\u1ec1n Ng\u1ecdc Thanh", "image": "", "description": "", "address": "S\u1ed1 1 L\u00ea Tr\u1ef1c", "city": "1", "phuong": "19", "loai_hinh": "", "xep_hang": "", "le_hoi": "", "coordinates": "21.03394809528749, 105.8272690559399", "latitude": 21.03394809528749, "link_web": "", "id_detail": "acb4748d-6e2d-4b24-8c61-e35de1bcf0d9", "simistorelocator_id": "6c21ef52-65ea-450c-9eaa-e9dd17afaf90", "zoom_level": 14, "longitude": 105.8272690559399}, {"store_name": "\u0110\u00ecnh Ng\u1ecdc Thanh", "image": "", "description": "", "address": "S\u1ed1 2 L\u00ea Tr\u1ef1c", "city": "1", "phuong": "19", "loai_hinh": "", "xep_hang": "", "le_hoi": "", "coordinates": "21.03394809528749, 105.8272690559399", "latitude": 21.03394809528749, "link_web": "", "id_detail": "3f815873-7f65-452c-a85e-3bfa13b210d9", "simistorelocator_id": "d7692efc-2074-425e-acfe-9672f690f667", "zoom_level": 14, "longitude": 105.8272690559399}, {"store_name": "DTCM 79 \u0110\u1ed9i C\u1ea5n", "image": "", "description": "", "address": "S\u1ed1 79 \u0110\u1ed9i C\u1ea5n", "city": "1", "phuong": "22", "loai_hinh": "", "xep_hang": "", "le_hoi": "", "coordinates": "21.035552197849363, 105.83004977867154", "latitude": 21.035552197849363, "link_web": "", "id_detail": "ccc8376c-f8bb-490b-9e08-c1ca99a0a34f", "simistorelocator_id": "7aa64984-96b9-4e63-aa80-8a11f03ac9ba", "zoom_level": 14, "longitude": 105.83004977867154}, {"store_name": "V\u0103n Ch\u1ec9 V\u1ea1n Ph\u00fac", "image": "", "description": "", "address": "L\u00e0ng V\u1ea1n Ph\u00fac", "city": "1", "phuong": "22", "loai_hinh": "", "xep_hang": "", "le_hoi": "", "coordinates": "20.98186307229863, 105.77111690999045", "latitude": 20.98186307229863, "link_web": "", "id_detail": "ac68bbbd-7ffe-4ea1-bb13-42dfbd967d72", "simistorelocator_id": "c5195842-afc5-41fd-9ea7-f25e6cbbcd5b", "zoom_level": 14, "longitude": 105.77111690999045}, {"store_name": "Ch\u00f9a Linh \u1ee8ng", "image": "", "description": "", "address": "Ng\u00f5 3 s\u1ed1 67", "city": "1", "phuong": "31", "loai_hinh": "", "xep_hang": "", "le_hoi": "", "coordinates": "20.91278219746871, 105.803488740563", "latitude": 20.91278219746871, "link_web": "", "id_detail": "33a292f4-e712-403b-8cbd-64775bf693ed", "simistorelocator_id": "2805ce78-4e8f-4d23-ae19-12bf7da15e61", "zoom_level": 14, "longitude": 105.803488740563}, {"store_name": "Ch\u00f9a Th\u00e1i B\u00ecnh", "image": "", "description": "", "address": "A5 khu l\u1eafp gh\u00e9p Gi\u1ea3ng V\u00f5", "city": "1", "phuong": "31", "loai_hinh": "", "xep_hang": "", "le_hoi": "", "coordinates": "20.714640984905294, 105.76789982516425", "latitude": 20.714640984905294, "link_web": "", "id_detail": "954adb01-5e5e-4023-a7e5-ee9317911f0c", "simistorelocator_id": "464d3cfe-bd74-4f88-ab62-491a01786ba9", "zoom_level": 14, "longitude": 105.76789982516425}, {"store_name": "Ch\u00f9a L\u01b0u Ly", "image": "", "description": "", "address": "Ng\u00f5 2 s\u1ed1 92", "city": "1", "phuong": "31", "loai_hinh": "", "xep_hang": "", "le_hoi": "", "coordinates": "20.77188458082049, 105.84897457120492", "latitude": 20.77188458082049, "link_web": "", "id_detail": "f1180699-7a1b-4845-8e89-10626f8be388", "simistorelocator_id": "bf3c4247-c10d-4cf3-af8c-6754ad49e39d", "zoom_level": 14, "longitude": 105.84897457120492}, {"store_name": "Tr\u01b0\u1eddng Gi\u1ea3ng V\u00f5", "image": "", "description": "", "address": "Ng\u00f5 2", "city": "1", "phuong": "31", "loai_hinh": "", "xep_hang": "", "le_hoi": "", "coordinates": "21.029235363381915, 105.82204787127995", "latitude": 21.029235363381915, "link_web": "", "id_detail": "ab53ed27-67e3-4fa4-ac32-268874e05d5c", "simistorelocator_id": "2fd0318f-d17e-4df8-a14e-9678cf90747f", "zoom_level": 14, "longitude": 105.82204787127995}, {"store_name": "Tr\u1eadn \u0111\u00e1nh t\u1ea1i khu v\u1ef1c Gi\u1ea3ng V\u00f5", "image": "", "description": "", "address": "Ng\u00f5 2 Ng\u1ecdc Kh\u00e1nh", "city": "1", "phuong": "31", "loai_hinh": "", "xep_hang": "", "le_hoi": "", "coordinates": "21.026136794784055, 105.81981630425257", "latitude": 21.026136794784055, "link_web": "", "id_detail": "cc5187a2-a60c-446f-b6e6-fc93317812c7", "simistorelocator_id": "296295b0-4d63-42b6-8551-5232c0904fe8", "zoom_level": 14, "longitude": 105.81981630425257}, {"store_name": "\u0110\u00ecnh C\u1ed5 Th\u00e0nh", "image": "", "description": "", "address": "147 Nguy\u1ec5n Th\u00e1i H\u1ecdc", "city": "1", "phuong": "28", "loai_hinh": "", "xep_hang": "", "le_hoi": "", "coordinates": "21.036067695979586, 105.8477403957249", "latitude": 21.036067695979586, "link_web": "", "id_detail": "6387ea75-2ce5-4d15-8a43-7a0d78263cbe", "simistorelocator_id": "8c38549e-3713-4b63-b3e3-d460956b4e4a", "zoom_level": 14, "longitude": 105.8477403957249}, {"store_name": "Mi\u1ebfu \u00d4ng", "image": "", "description": "", "address": "", "city": "1", "phuong": "28", "loai_hinh": "", "xep_hang": "", "le_hoi": "", "coordinates": "20.94230241600831, 105.8054316510931", "latitude": 20.94230241600831, "link_web": "", "id_detail": "f3d05133-3d9d-4f5d-abad-06147e101310", "simistorelocator_id": "9d75635c-fdc4-4f8a-a1d2-2e472834202a", "zoom_level": 14, "longitude": 105.8054316510931}, {"store_name": "\u0110\u00ecnh V\u0129nh X\u01b0\u01a1ng", "image": "", "description": "", "address": "31 Nguy\u1ec5n Th\u00e1i H\u1ecdc", "city": "1", "phuong": "28", "loai_hinh": "", "xep_hang": "", "le_hoi": "", "coordinates": "20.79021893719218, 105.70091294651272", "latitude": 20.79021893719218, "link_web": "", "id_detail": "54f34571-c8a3-4955-915f-cf6b3ec967a9", "simistorelocator_id": "336c8b6f-1d31-4645-a8cb-edaab9b76462", "zoom_level": 14, "longitude": 105.70091294651272}, {"store_name": "DTCM 139 Ng\u1ecdc H\u00e0", "image": "", "description": "", "address": "S\u1ed1 139 Ng\u1ecdc H\u00e0", "city": "1", "phuong": "16", "loai_hinh": "", "xep_hang": "", "le_hoi": "", "coordinates": "21.038957240458124, 105.82898630991725", "latitude": 21.038957240458124, "link_web": "", "id_detail": "c2491509-baca-4e1c-b7bc-c737f72ededc", "simistorelocator_id": "893d9b88-8aa7-4134-9049-4d65fd704191", "zoom_level": 14, "longitude": 105.82898630991725}, {"store_name": "V\u0103n ch\u1ec9 l\u00e0ng Ng\u1ecdc H\u00e0", "image": "", "description": "", "address": "S\u1ed1 93-95-97 l\u00e0ng Ng\u1ecdc H\u00e0", "city": "1", "phuong": "16", "loai_hinh": "", "xep_hang": "", "le_hoi": "", "coordinates": "21.03916942060099, 105.82353108728555", "latitude": 21.03916942060099, "link_web": "", "id_detail": "2cd24e07-3836-4c26-9f45-9578e13ca0b8", "simistorelocator_id": "46e44f1a-7959-4756-b24d-416e46b4cc99", "zoom_level": 14, "longitude": 105.82353108728555}, {"store_name": "V\u0103n ch\u1ec9 \u0110\u1ea1i Y\u00ean v\u00e0 m\u1ed9 Ng\u1ecdc Hoa c\u00f4ng ch\u00faa", "image": "", "description": "", "address": "L\u00e0ng \u0110\u1ea1i Y\u00ean", "city": "1", "phuong": "16", "loai_hinh": "", "xep_hang": "", "le_hoi": "", "coordinates": "21.0378305094951, 105.82068512525827", "latitude": 21.0378305094951, "link_web": "", "id_detail": "b1d8b18e-9b76-45ec-aac8-b355921b8e80", "simistorelocator_id": "9e3228c3-76cf-4eca-8287-68088263e1a8", "zoom_level": 14, "longitude": 105.82068512525827}, {"store_name": "N\u00fai S\u01b0a", "image": "", "description": "", "address": "C\u00f4ng vi\u00ean B\u00e1ch Th\u1ea3o", "city": "1", "phuong": "16", "loai_hinh": "", "xep_hang": "", "le_hoi": "", "coordinates": "21.040226972911466, 105.83011363264882", "latitude": 21.040226972911466, "link_web": "", "id_detail": "fc77f00d-1aac-4594-bfc5-64c895ff034a", "simistorelocator_id": "e41df364-9af6-4ea8-8b26-a39cdcc1b569", "zoom_level": 14, "longitude": 105.83011363264882}, {"store_name": "Mi\u1ebfu (\u0111\u1ec1n) N\u00fai S\u01b0a", "image": "", "description": "", "address": "V\u01b0\u1eddn B\u00e1ch Th\u1ea3o", "city": "1", "phuong": "16", "loai_hinh": "", "xep_hang": "", "le_hoi": "", "coordinates": "21.040886920428154, 105.83015044060052", "latitude": 21.040886920428154, "link_web": "", "id_detail": "120b0eef-aeed-4980-9593-af7a1d61d36e", "simistorelocator_id": "cc7f4f23-f86d-42d3-8709-1c31b4d948a9", "zoom_level": 14, "longitude": 105.83015044060052}, {"store_name": "Nh\u00e0 m\u00e1y bia H\u00e0 N\u1ed9i", "image": "", "description": "", "address": "70B Ho\u00e0ng Hoa Th\u00e1m", "city": "1", "phuong": "16", "loai_hinh": "", "xep_hang": "", "le_hoi": "", "coordinates": "21.042293735314104, 105.82136284799077", "latitude": 21.042293735314104, "link_web": "", "id_detail": "72954011-1d08-4549-87da-d25a92782e15", "simistorelocator_id": "78c8be5a-134d-46a9-ba35-7377459779c4", "zoom_level": 14, "longitude": 105.82136284799077}, {"store_name": "Ch\u00f9a (\u0111\u1ec1n) Tr\u01b0\u1eddng D\u01b0\u1ee3c", "image": "", "description": "", "address": "Khu V\u0103n ph\u00f2ng B\u1ed9 tr\u01b0\u1edfng", "city": "1", "phuong": "16", "loai_hinh": "", "xep_hang": "", "le_hoi": "", "coordinates": "21.026440038913258, 105.85792307606071", "latitude": 21.026440038913258, "link_web": "", "id_detail": "70629a78-edc3-4b49-87d4-cde4c775edf4", "simistorelocator_id": "ef93447d-ab4b-4dcc-8c1f-0ceef20d005f", "zoom_level": 14, "longitude": 105.85792307606071}, {"store_name": "V\u0103n ch\u1ec9 H\u1eefu Ti\u1ec7p", "image": "", "description": "", "address": "", "city": "1", "phuong": "16", "loai_hinh": "", "xep_hang": "", "le_hoi": "", "coordinates": "21.036864587836156, 105.82869987128205", "latitude": 21.036864587836156, "link_web": "", "id_detail": "232eca3c-d60a-4465-9d31-4b99c06224a8", "simistorelocator_id": "3c770073-8af5-4f1a-98c1-9a27c2c4406f", "zoom_level": 14, "longitude": 105.82869987128205}, {"store_name": "Ch\u00f9a Ch\u00e2n Gi\u00e1o", "image": "", "description": "", "address": "Khu v\u1ef1c nh\u00e0 m\u00e1y bia H\u00e0 N\u1ed9i, 70B Ho\u00e0ng Hoa Th\u00e1m", "city": "1", "phuong": "16", "loai_hinh": "", "xep_hang": "", "le_hoi": "", "coordinates": "21.022704474346213, 105.84890977056348", "latitude": 21.022704474346213, "link_web": "", "id_detail": "58d5a41a-95bd-44c7-825c-5f53b60b06f0", "simistorelocator_id": "64ee4e3b-0785-4fbc-b27e-c450a8bbbb2b", "zoom_level": 14, "longitude": 105.84890977056348}, {"store_name": "Ch\u00f9a Ph\u00fac Thi\u1ec7n", "image": "", "description": "", "address": "", "city": "1", "phuong": "25", "loai_hinh": "", "xep_hang": "", "le_hoi": "", "coordinates": "20.75469638152003, 105.76631144846884", "latitude": 20.75469638152003, "link_web": "", "id_detail": "d4b6d18b-183c-41bf-869c-fe8a099c2212", "simistorelocator_id": "af972170-4f15-4f45-b7b6-638a2e31c64f", "zoom_level": 14, "longitude": 105.76631144846884}, {"store_name": "N\u00fai B\u00f2 v\u00e0 \u0111o\u1ea1n th\u00e0nh c\u1ed5 \u1edf Th\u1ee7 L\u1ec7", "image": "", "description": "", "address": "Th\u1ee7 L\u1ec7", "city": "1", "phuong": "25", "loai_hinh": "", "xep_hang": "", "le_hoi": "", "coordinates": "21.031501278547747, 105.80524406389083", "latitude": 21.031501278547747, "link_web": "", "id_detail": "db977c61-c255-429c-b5c2-94892f24e859", "simistorelocator_id": "67b491f3-5b7f-4b06-a1d2-09875ca3cc97", "zoom_level": 14, "longitude": 105.80524406389083}, {"store_name": "\u0110\u1ec1n Y\u00ean Thu\u1eadn Th\u01b0\u1ee3ng", "image": "", "description": "", "address": "25 H\u00e0ng Than", "city": "1", "phuong": "10", "loai_hinh": "", "xep_hang": "", "le_hoi": "", "coordinates": "21.042536584267022, 105.84757378264943", "latitude": 21.042536584267022, "link_web": "", "id_detail": "f802147f-1dd3-4446-9056-07863b74453d", "simistorelocator_id": "6bd04bde-336d-4f4d-a0a1-f976e66db4ce", "zoom_level": 14, "longitude": 105.84757378264943}, {"store_name": "\u0110\u1ec1n Y\u00ean Thu\u1eadn H\u1ea1", "image": "", "description": "", "address": "S\u1ed1 39 H\u00e0ng Than", "city": "1", "phuong": "10", "loai_hinh": "", "xep_hang": "", "le_hoi": "", "coordinates": "21.042536584267022, 105.84757378264943", "latitude": 21.042536584267022, "link_web": "", "id_detail": "32a49d2b-926f-4b6f-97c7-10e0982149a1", "simistorelocator_id": "2b943fbb-a918-4c7f-b487-e7add10e8c2d", "zoom_level": 14, "longitude": 105.84757378264943}, {"store_name": "\u0110\u00ecnh Th\u1ea1ch Kh\u1ed1i H\u1ea1", "image": "", "description": "", "address": "S\u1ed1 12 H\u00e0ng Than", "city": "1", "phuong": "10", "loai_hinh": "", "xep_hang": "", "le_hoi": "", "coordinates": "21.043737738210005, 105.84688713473187", "latitude": 21.043737738210005, "link_web": "", "id_detail": "42be597d-bc80-41b8-9417-05492d2d6878", "simistorelocator_id": "5eaabce9-19e5-4f22-bc93-65e0c1a6aa94", "zoom_level": 14, "longitude": 105.84688713473187}, {"store_name": "\u0110\u00ecnh Th\u1ea1ch Kh\u1ed1i Th\u01b0\u1ee3ng", "image": "", "description": "", "address": "64 \u0111\u01b0\u1eddng Y\u00ean Ph\u1ee5", "city": "1", "phuong": "10", "loai_hinh": "", "xep_hang": "", "le_hoi": "", "coordinates": "21.043737738210005, 105.84688713473187", "latitude": 21.043737738210005, "link_web": "", "id_detail": "31aad981-b9db-4f7b-86ce-c31ad5658a90", "simistorelocator_id": "298fadaf-7450-4fb4-9144-fb699e19973b", "zoom_level": 14, "longitude": 105.84688713473187}, {"store_name": "\u0110\u1ec1n Th\u1ee7y Thi\u00ean Quang", "image": "", "description": "", "address": "15 H\u00e0ng B\u00fan", "city": "1", "phuong": "10", "loai_hinh": "", "xep_hang": "", "le_hoi": "", "coordinates": "21.04407448744898, 105.84576908662565", "latitude": 21.04407448744898, "link_web": "", "id_detail": "ad55862c-8250-4158-bc9f-377e10dc728a", "simistorelocator_id": "118bda86-6a22-423c-92e6-94bb97f9aabc", "zoom_level": 14, "longitude": 105.84576908662565}, {"store_name": "\u0110\u1ec1n H\u00e0ng B\u00fan", "image": "", "description": "", "address": "S\u1ed1 34 H\u00e0ng B\u00fan", "city": "1", "phuong": "10", "loai_hinh": "", "xep_hang": "", "le_hoi": "", "coordinates": "21.043399718996884, 105.84547483264959", "latitude": 21.043399718996884, "link_web": "", "id_detail": "740a87aa-2fe4-45e5-a82e-0a1afe437cb3", "simistorelocator_id": "e9516f4f-b9e9-4c0c-b0a3-d9e7cfde0491", "zoom_level": 14, "longitude": 105.84547483264959}, {"store_name": "DTCM 40 H\u00e0ng B\u00fan", "image": "", "description": "", "address": "S\u1ed1 40 H\u00e0ng B\u00fan", "city": "1", "phuong": "10", "loai_hinh": "", "xep_hang": "", "le_hoi": "", "coordinates": "21.042501695499507, 105.8449639559424", "latitude": 21.042501695499507, "link_web": "", "id_detail": "b29040dd-929f-4413-be37-e42a4f2d41b8", "simistorelocator_id": "e72fadf1-b91e-4a67-b68b-b6eb7f3e4b5f", "zoom_level": 14, "longitude": 105.8449639559424}, {"store_name": "\u0110\u1ec1n Th\u00e1nh Tr\u1ea7n", "image": "", "description": "", "address": "S\u1ed1 6 H\u00f2e Nhai", "city": "1", "phuong": "10", "loai_hinh": "", "xep_hang": "", "le_hoi": "", "coordinates": "21.027260989117604, 105.84109692525516", "latitude": 21.027260989117604, "link_web": "", "id_detail": "2e241cef-4ee1-44db-8af4-386581464252", "simistorelocator_id": "dc25e09b-1e01-46cb-84bf-08ab64c705ff", "zoom_level": 14, "longitude": 105.84109692525516}, {"store_name": "\u0110\u00ecnh (\u0111\u1ec1n) Cao S\u01a1n", "image": "", "description": "", "address": "51 Nguy\u1ec5n Kh\u1eafc Nhu", "city": "1", "phuong": "10", "loai_hinh": "", "xep_hang": "", "le_hoi": "", "coordinates": "21.01169418726611, 105.83808230990914", "latitude": 21.01169418726611, "link_web": "", "id_detail": "972ce330-b617-408d-8e2e-115bc74beb56", "simistorelocator_id": "2812975b-25aa-4987-a1a9-8cfb095b74ae", "zoom_level": 14, "longitude": 105.83808230990914}, {"store_name": "\u0110\u00ecnh T\u00e2y Lu\u00f4ng", "image": "", "description": "", "address": "23 Nguy\u1ec5n Trung Tr\u1ef1c", "city": "1", "phuong": "10", "loai_hinh": "", "xep_hang": "", "le_hoi": "", "coordinates": "21.042566209503743, 105.84774677525944", "latitude": 21.042566209503743, "link_web": "", "id_detail": "bb653a98-af41-40b2-94d3-7caa682d6ffc", "simistorelocator_id": "1cba9abd-1742-4c43-8c7f-8e5a772de045", "zoom_level": 14, "longitude": 105.84774677525944}, {"store_name": "\u0110\u1ec1n An Ph\u00fa", "image": "", "description": "", "address": "192 Ph\u00f3 \u0110\u1ee9c Ch\u00ednh", "city": "1", "phuong": "10", "loai_hinh": "", "xep_hang": "", "le_hoi": "", "coordinates": "21.04384746953138, 105.84753219609712", "latitude": 21.04384746953138, "link_web": "", "id_detail": "980990ce-24db-4ab8-8f70-d05e07306892", "simistorelocator_id": "b631b9de-40a1-4eb3-8a1f-ac3e9b73454e", "zoom_level": 14, "longitude": 105.84753219609712}, {"store_name": "\u0110\u1ec1n \u0110\u1ee9c Vua", "image": "", "description": "", "address": "216 Ph\u00f3 \u0110\u1ee9c Ch\u00ednh", "city": "1", "phuong": "10", "loai_hinh": "", "xep_hang": "", "le_hoi": "", "coordinates": "21.044381792306563, 105.84696464060157", "latitude": 21.044381792306563, "link_web": "", "id_detail": "1c79b0ce-cc5c-433a-a85a-3db4be1cf0ec", "simistorelocator_id": "95a3f44a-ec07-404d-a643-09207cf18c74", "zoom_level": 14, "longitude": 105.84696464060157}, {"store_name": "\u0110\u00ecnh Y\u00ean Ninh", "image": "", "description": "", "address": "150 Ph\u00f3 \u0110\u1ee9c Ch\u00ednh", "city": "1", "phuong": "10", "loai_hinh": "", "xep_hang": "", "le_hoi": "", "coordinates": "21.24317561320598, 105.79019389122195", "latitude": 21.24317561320598, "link_web": "", "id_detail": "14e6362e-8472-473a-97b7-dca750ff13f2", "simistorelocator_id": "97759e39-f384-43b1-95c8-ebf2a59d47f1", "zoom_level": 14, "longitude": 105.79019389122195}, {"store_name": "Mi\u1ebfu \u0110\u1ed3ng Ph\u00fa", "image": "", "description": "", "address": "S\u1ed1 102 Y\u00ean Ph\u1ee5", "city": "1", "phuong": "10", "loai_hinh": "", "xep_hang": "", "le_hoi": "", "coordinates": "21.065225592737594, 105.73863733159855", "latitude": 21.065225592737594, "link_web": "", "id_detail": "7a6c3ad5-e597-48f3-aa5a-7021877977e2", "simistorelocator_id": "871f8747-3416-4283-ad3f-bb72d23a4a14", "zoom_level": 14, "longitude": 105.73863733159855}, {"store_name": "DTCM s\u1ed1 4 H\u00f2e Nhai", "image": "", "description": "", "address": "S\u1ed1 4 H\u00f2e Nhai", "city": "1", "phuong": "10", "loai_hinh": "", "xep_hang": "", "le_hoi": "", "coordinates": "21.042748462590104, 105.84692747128385", "latitude": 21.042748462590104, "link_web": "", "id_detail": "11cd0765-855f-4d76-9f1d-1c049f5474f9", "simistorelocator_id": "cadc00c8-cc58-496e-92b6-f6ca5a9bfbd0", "zoom_level": 14, "longitude": 105.84692747128385}, {"store_name": "C\u01a1 quan X\u1ee9 \u1ee6y B\u1eafc K\u00ec \u1edf b\u00e3i Ph\u00fac X\u00e1", "image": "", "description": "", "address": "", "city": "1", "phuong": "1", "loai_hinh": "", "xep_hang": "", "le_hoi": "", "coordinates": "21.04683085764404, 105.8464652236821", "latitude": 21.04683085764404, "link_web": "", "id_detail": "fd32ecff-3a75-4124-9847-45fce25af578", "simistorelocator_id": "0d99fe62-5540-4de3-ac52-1477cc1f51c6", "zoom_level": 14, "longitude": 105.8464652236821}, {"store_name": "\u0110\u1ec1n B\u00e1ch Linh", "image": "", "description": "", "address": "X\u00f3m An D\u01b0\u01a1ng", "city": "1", "phuong": "1", "loai_hinh": "", "xep_hang": "", "le_hoi": "", "coordinates": "20.677829848600513, 105.762757617202", "latitude": 20.677829848600513, "link_web": "", "id_detail": "81bbb10b-62a6-4964-a2e2-3a5ac40244a5", "simistorelocator_id": "cf8910f6-9781-4bf8-9b71-e21d8384c70a", "zoom_level": 14, "longitude": 105.762757617202}, {"store_name": "\u0110\u1ec1n Tam Th\u00e1nh", "image": "", "description": "", "address": "194 Quan Th\u00e1nh", "city": "1", "phuong": "Ph\u01b0\u1eddng Quang Th\u00e1nh", "loai_hinh": "", "xep_hang": "", "le_hoi": "", "coordinates": "21.054781783895933, 105.81040569401853", "latitude": 21.054781783895933, "link_web": "", "id_detail": "11653566-923d-47b1-a214-750293b0a7ff", "simistorelocator_id": "3c20236d-3b23-4a5f-9734-ac45edb5d718", "zoom_level": 14, "longitude": 105.81040569401853}, {"store_name": "Nh\u00e0 80 Phan \u0110\u00ecnh Ph\u00f9ng", "image": "", "description": "", "address": "Phan \u0110\u00ecnh Ph\u00f9ng", "city": "1", "phuong": "Ph\u01b0\u1eddng Quang Th\u00e1nh", "loai_hinh": "", "xep_hang": "", "le_hoi": "", "coordinates": "21.042593609857047, 105.83721970991823", "latitude": 21.042593609857047, "link_web": "", "id_detail": "390646de-5470-4e6c-9ae8-771304821b29", "simistorelocator_id": "31736491-c09d-4433-815b-74c66a19ed1a", "zoom_level": 14, "longitude": 105.83721970991823}, {"store_name": "Bia c\u0103m th\u00f9 gi\u1eafc M\u1ef9", "image": "", "description": "", "address": "Ph\u01b0\u1eddng Tr\u00fac B\u1ea1ch", "city": "1", "phuong": "Ph\u01b0\u1eddng Quang Th\u00e1nh", "loai_hinh": "", "xep_hang": "", "le_hoi": "", "coordinates": "21.04615453524006, 105.84318428523848", "latitude": 21.04615453524006, "link_web": "", "id_detail": "bf80a6d3-d03d-4896-b27d-b9b0e209db70", "simistorelocator_id": "7dd333a9-54d6-4710-a871-cf748d521621", "zoom_level": 14, "longitude": 105.84318428523848}, {"store_name": "\u0110\u00ecnh Th\u00e0nh C\u00f4ng (trong)", "image": "", "description": "", "address": "L\u00e0ng Th\u00e0nh C\u00f4ng", "city": "1", "phuong": "34", "loai_hinh": "", "xep_hang": "", "le_hoi": "", "coordinates": "21.02196914132103, 105.8152210871811", "latitude": 21.02196914132103, "link_web": "", "id_detail": "73cd5c21-b761-4481-8955-ee40a9e7af5b", "simistorelocator_id": "8d3d3ea3-1785-4e2f-9190-d205fbc4ba3d", "zoom_level": 14, "longitude": 105.8152210871811}, {"store_name": "DTCM Th\u00e0nh C\u00f4ng", "image": "", "description": "", "address": "L\u00e0ng Th\u00e0nh C\u00f4ng", "city": "1", "phuong": "34", "loai_hinh": "", "xep_hang": "", "le_hoi": "", "coordinates": "21.021570227622774, 105.81560784457062", "latitude": 21.021570227622774, "link_web": "", "id_detail": "6570bbd1-c662-41c6-98ff-c56035422447", "simistorelocator_id": "2bdd1d06-f197-41e2-8785-7af08b42f095", "zoom_level": 14, "longitude": 105.81560784457062}, {"store_name": "\u0110\u1ec1n L\u1ea1c Ch\u00ednh", "image": "", "description": "", "address": "S\u1ed1 5 Ch\u00e2u Long", "city": "1", "phuong": "4", "loai_hinh": "", "xep_hang": "", "le_hoi": "", "coordinates": "21.047699744975166, 105.84140995594383", "latitude": 21.047699744975166, "link_web": "", "id_detail": "d281778c-846b-4282-b456-ce3e35a5889b", "simistorelocator_id": "5a4c1894-ff35-47e3-ab75-0435a80ae38b", "zoom_level": 14, "longitude": 105.84140995594383}, {"store_name": "\u0110\u00ecnh Ch\u00e2u Long", "image": "", "description": "", "address": "S\u1ed1 4 ng\u00f5 Ch\u00e2u Long", "city": "1", "phuong": "4", "loai_hinh": "", "xep_hang": "", "le_hoi": "", "coordinates": "21.04484175940951, 105.84169421304219", "latitude": 21.04484175940951, "link_web": "", "id_detail": "61c9fe76-ea78-449c-8a9c-fc260b0ceaf6", "simistorelocator_id": "70fa249f-88ad-482d-ab6f-6f0313084c1b", "zoom_level": 14, "longitude": 105.84169421304219}, {"store_name": "Ch\u00f9a Ph\u1ed5 Quang (ch\u00f9a Am C\u1eeda B\u1eafc)", "image": "", "description": "", "address": "S\u1ed1 29 C\u1eeda B\u1eafc", "city": "1", "phuong": "4", "loai_hinh": "", "xep_hang": "", "le_hoi": "", "coordinates": "21.044473519641762, 105.84291220991888", "latitude": 21.044473519641762, "link_web": "", "id_detail": "7eb130d1-017d-4487-9f7c-a380bc9a20ce", "simistorelocator_id": "c2353856-58e8-4899-9a8e-ed7a41278065", "zoom_level": 14, "longitude": 105.84291220991888}, {"store_name": "Am Ch\u00e2u Long", "image": "", "description": "", "address": "S\u1ed1 66 C\u1eeda B\u1eafc", "city": "1", "phuong": "4", "loai_hinh": "", "xep_hang": "", "le_hoi": "", "coordinates": "21.04481850421231, 105.84175203701156", "latitude": 21.04481850421231, "link_web": "", "id_detail": "f4907eaf-d6c0-4ae8-81d7-a5dc480d8aa7", "simistorelocator_id": "a0997f06-6310-4295-b3d9-49e9eeafd30c", "zoom_level": 14, "longitude": 105.84175203701156}, {"store_name": "Nh\u00e0 m\u00e1y \u0111i\u1ec7n Y\u00ean Ph\u1ee5", "image": "", "description": "", "address": "S\u1ed1 1 C\u1eeda B\u1eafc", "city": "1", "phuong": "4", "loai_hinh": "", "xep_hang": "", "le_hoi": "", "coordinates": "21.04500964797495, 105.8428116945775", "latitude": 21.04500964797495, "link_web": "", "id_detail": "1b4ddc94-167c-4ff4-a85b-bbebae7bfb7e", "simistorelocator_id": "07464139-1061-48de-ba80-a81c03ccf4a3", "zoom_level": 14, "longitude": 105.8428116945775}, {"store_name": "Ch\u00f9a Y\u00ean Vi\u00ean", "image": "", "description": "", "address": "46 Nguy\u1ec5n Tr\u01b0\u1eddng T\u1ed9", "city": "1", "phuong": "4", "loai_hinh": "", "xep_hang": "", "le_hoi": "", "coordinates": "21.141361428073658, 105.81380755994718", "latitude": 21.141361428073658, "link_web": "", "id_detail": "000be615-54ab-45e7-bdb4-7f2d1fd66fcd", "simistorelocator_id": "9a4f9770-c034-4832-a690-4e7a2ca42990", "zoom_level": 14, "longitude": 105.81380755994718}, {"store_name": "Ch\u00f9a Linh S\u01a1n", "image": "", "description": "", "address": "46 Nguy\u1ec5n Tr\u01b0\u1eddng T\u1ed9", "city": "1", "phuong": "4", "loai_hinh": "", "xep_hang": "", "le_hoi": "", "coordinates": "21.016015636974608, 105.8576334567239", "latitude": 21.016015636974608, "link_web": "", "id_detail": "e42e8faa-9b52-4438-8dec-ce7bed49c695", "simistorelocator_id": "48cd7a3e-37d6-4674-a2ee-a5089378b13a", "zoom_level": 14, "longitude": 105.8576334567239}, {"store_name": "Tr\u01b0\u1eddng Y\u00ean Ph\u1ee5 (M\u1ea1c \u0110\u0129nh Chi)", "image": "", "description": "", "address": "66 Ph\u00f3 \u0110\u1ee9c Ch\u00ednh", "city": "1", "phuong": "4", "loai_hinh": "", "xep_hang": "", "le_hoi": "", "coordinates": "21.050025279818747, 105.84144667526171", "latitude": 21.050025279818747, "link_web": "", "id_detail": "f2f0d400-1b03-4435-a751-99d3e8c5ba41", "simistorelocator_id": "158666f4-f5bf-45e4-b223-680973877e84", "zoom_level": 14, "longitude": 105.84144667526171}, {"store_name": "Nam \u0110\u1ed3ng th\u01b0 x\u00e3", "image": "", "description": "", "address": "S\u1ed1 129 Tr\u00fac B\u1ea1ch", "city": "1", "phuong": "4", "loai_hinh": "", "xep_hang": "", "le_hoi": "", "coordinates": "21.014423260593226, 105.83146240083471", "latitude": 21.014423260593226, "link_web": "", "id_detail": "c6237fad-2081-4e30-acbf-2f9754006992", "simistorelocator_id": "4c324f29-6386-4668-bd46-fa601af6cf7c", "zoom_level": 14, "longitude": 105.83146240083471}, {"store_name": "\u0110\u1ec1n C\u1ea9u Nhi (Th\u1ee7y Trung Ti\u00ean)", "image": "", "description": "", "address": "\u0110\u01b0\u1eddng Thanh Ni\u00ean", "city": "1", "phuong": "4", "loai_hinh": "", "xep_hang": "", "le_hoi": "", "coordinates": "21.049764172719495, 105.83875799457886", "latitude": 21.049764172719495, "link_web": "", "id_detail": "e2d48b17-6641-4e85-95fc-e83e1f340bcc", "simistorelocator_id": "7e9265f8-3fc7-40e5-8c66-9c5249736498", "zoom_level": 14, "longitude": 105.83875799457886}, {"store_name": "\u0110\u00ecnh Tr\u00fac L\u1ea1c", "image": "", "description": "", "address": "62 Ph\u00f3 \u0110\u1ee9c Ch\u00ednh", "city": "1", "phuong": "4", "loai_hinh": "", "xep_hang": "", "le_hoi": "", "coordinates": "21.049964719477483, 105.84011539457893", "latitude": 21.049964719477483, "link_web": "", "id_detail": "9ec6e996-9739-4b3b-90d7-1f8a42023023", "simistorelocator_id": "aae82892-09db-465c-878f-095b9fa0bf85", "zoom_level": 14, "longitude": 105.84011539457893}, {"store_name": "L\u0103ng Th\u00e1i T\u1ec3", "image": "", "description": "", "address": "V\u0129nh Ph\u00fac III", "city": "1", "phuong": "6", "loai_hinh": "", "xep_hang": "", "le_hoi": "", "coordinates": "20.97426701625254, 105.80842151728802", "latitude": 20.97426701625254, "link_web": "", "id_detail": "ac995436-d785-4c8a-a635-6e82b3367727", "simistorelocator_id": "ce642969-3a7c-4f86-a854-e180d2117bee", "zoom_level": 14, "longitude": 105.80842151728802}, {"store_name": "\u0110inh Th\u00e1i T\u1ec3", "image": "", "description": "", "address": "T\u1ed5 19", "city": "1", "phuong": "6", "loai_hinh": "", "xep_hang": "", "le_hoi": "", "coordinates": "20.979692540185862, 105.81922352524117", "latitude": 20.979692540185862, "link_web": "", "id_detail": "5c3aa662-27ee-4fd2-9de0-c2ad79553118", "simistorelocator_id": "d908d442-5962-4d3d-9e7c-859aa1f3b9e6", "zoom_level": 14, "longitude": 105.81922352524117}, {"store_name": "\u0110\u00ecnh \u0110a Ph\u00fac", "image": "", "description": "", "address": "", "city": "5", "phuong": "169", "loai_hinh": "", "xep_hang": "", "le_hoi": "", "coordinates": "21.022567320328346, 105.64686843264359", "latitude": 21.022567320328346, "link_web": "", "id_detail": "7df16341-7b4f-4035-a44d-d2bf5b55678b", "simistorelocator_id": "56a4ea7e-9032-442b-9a3a-8f7bca88e57f", "zoom_level": 14, "longitude": 105.64686843264359}, {"store_name": "Nh\u00e0 b\u00e0 Hai Nh\u00e3", "image": "", "description": "", "address": "", "city": "5", "phuong": "169", "loai_hinh": "", "xep_hang": "", "le_hoi": "", "coordinates": "21.036624342021977, 105.80536766626432", "latitude": 21.036624342021977, "link_web": "", "id_detail": "ea0d454b-7486-4619-99fe-b7fcd216aeda", "simistorelocator_id": "1137c664-f3c1-4bf2-908c-4318f72a1863", "zoom_level": 14, "longitude": 105.80536766626432}, {"store_name": "Ch\u00f9a T\u0103ng Ph\u00fac", "image": "", "description": "", "address": "", "city": "5", "phuong": "169", "loai_hinh": "", "xep_hang": "", "le_hoi": "", "coordinates": "21.059463101409293, 105.88613527128867", "latitude": 21.059463101409293, "link_web": "", "id_detail": "9a554482-cefa-4664-90a2-178d0175653c", "simistorelocator_id": "a7fcb605-f527-4c5e-a865-7fcfec4b18b1", "zoom_level": 14, "longitude": 105.88613527128867}, {"store_name": "\u0110\u00ecnh V\u0129", "image": "", "description": "", "address": "", "city": "5", "phuong": "167", "loai_hinh": "", "xep_hang": "", "le_hoi": "", "coordinates": "20.9041462,105.7326086", "latitude": 20.9041462, "link_web": "", "id_detail": "6c28a090-1a50-4ce8-9b67-581243d487ed", "simistorelocator_id": "c28f68cc-1b2f-44c9-b8f4-5605ba66cd17", "zoom_level": 14, "longitude": 105.7326086}, {"store_name": "Ch\u00f9a Th\u1ecd C\u1ea7u", "image": "", "description": "", "address": "", "city": "5", "phuong": "167", "loai_hinh": "", "xep_hang": "", "le_hoi": "", "coordinates": "21.034709,105.7826797", "latitude": 21.034709, "link_web": "", "id_detail": "eb4327da-82f9-40bb-8fc7-13c99caac4db", "simistorelocator_id": "b7401f13-a62e-40c6-a05c-dd23bc6eaa87", "zoom_level": 14, "longitude": 105.7826797}, {"store_name": "\u0110\u00ecnh Th\u1ecd C\u1ea7u", "image": "", "description": "", "address": "", "city": "5", "phuong": "167", "loai_hinh": "", "xep_hang": "", "le_hoi": "", "coordinates": "21.035750468992397, 105.79132717525758", "latitude": 21.035750468992397, "link_web": "", "id_detail": "5b8e07e3-31c0-4b2f-9057-6db83ffaa0e0", "simistorelocator_id": "a69c6667-4d32-4baf-8315-2ec0dbc73335", "zoom_level": 14, "longitude": 105.79132717525758}, {"store_name": "Nh\u00e0 th\u1edd C\u00e2u Qu\u00e1n", "image": "", "description": "", "address": "", "city": "5", "phuong": "167", "loai_hinh": "", "xep_hang": "", "le_hoi": "", "coordinates": "21.029411648042725, 105.83241457923165", "latitude": 21.029411648042725, "link_web": "", "id_detail": "c104337b-71ca-4589-99f5-6859627a6a51", "simistorelocator_id": "f3a3ac2c-24fd-46ba-ace2-95155ce800f4", "zoom_level": 14, "longitude": 105.83241457923165}, {"store_name": "Nh\u00e0 th\u1edd h\u1ecd V\u0103n", "image": "", "description": "", "address": "", "city": "5", "phuong": "163", "loai_hinh": "", "xep_hang": "", "le_hoi": "", "coordinates": "21.07580316060334, 105.78158549025865", "latitude": 21.07580316060334, "link_web": "", "id_detail": "a9388589-c50f-4412-bb82-3727315db23f", "simistorelocator_id": "2e72b32e-23d0-423e-813f-ee23c713729a", "zoom_level": 14, "longitude": 105.78158549025865}, {"store_name": "Nh\u00e0 th\u1edd h\u1ecd Tr\u01b0\u01a1ng", "image": "", "description": "", "address": "", "city": "5", "phuong": "163", "loai_hinh": "", "xep_hang": "", "le_hoi": "", "coordinates": "21.030082444429194, 105.85022035593872", "latitude": 21.030082444429194, "link_web": "", "id_detail": "e83be917-558a-475c-ae00-a11fef8de2d4", "simistorelocator_id": "732d0bcb-737c-47d8-aeb6-08644b035c6f", "zoom_level": 14, "longitude": 105.85022035593872}, {"store_name": "\u0110\u00ecnh S\u1edf V\u00f2ng", "image": "", "description": "", "address": "", "city": "5", "phuong": "163", "loai_hinh": "", "xep_hang": "", "le_hoi": "", "coordinates": "20.993836111105562, 105.81346904058675", "latitude": 20.993836111105562, "link_web": "", "id_detail": "81fffa6a-cbd3-4222-ba3a-f89e330dea19", "simistorelocator_id": "66be54ea-138b-4a6f-8398-26ea37d88290", "zoom_level": 14, "longitude": 105.81346904058675}, {"store_name": "Nh\u00e0 th\u1edd h\u1ecd \u0110o\u00e0n", "image": "", "description": "", "address": "X\u00f3m \u0110\u00f4ng \u0110\u00ecnh", "city": "5", "phuong": "163", "loai_hinh": "", "xep_hang": "", "le_hoi": "", "coordinates": "21.013663288939487, 105.97640572525115", "latitude": 21.013663288939487, "link_web": "", "id_detail": "ad4e7cfe-f189-4c2a-9d3b-e4f5192b98b1", "simistorelocator_id": "1138ec03-d5c1-47db-a521-62cc199b5ce2", "zoom_level": 14, "longitude": 105.97640572525115}, {"store_name": "Nh\u00e0 th\u1edd h\u1ecd B\u00f9i", "image": "", "description": "", "address": "X\u00f3m T\u00e2y \u0110\u00ecnh", "city": "5", "phuong": "163", "loai_hinh": "", "xep_hang": "", "le_hoi": "", "coordinates": "20.84301820482298, 105.87795904054286", "latitude": 20.84301820482298, "link_web": "", "id_detail": "1b5750d4-de29-463c-bd33-f0edccef6c3e", "simistorelocator_id": "365c3b3a-21e6-4d35-9cf5-bd0f5037f995", "zoom_level": 14, "longitude": 105.87795904054286}, {"store_name": "Nh\u00e0 th\u1edd h\u1ecd \u0110\u1ed7 V\u0103n, \u0110\u1ed7 Xu\u00e2n", "image": "", "description": "", "address": "", "city": "5", "phuong": "163", "loai_hinh": "", "xep_hang": "", "le_hoi": "", "coordinates": "21.025657394623483, 105.90408328840311", "latitude": 21.025657394623483, "link_web": "", "id_detail": "9ad4b92f-e2b9-4ae6-b7d0-8389edd46c35", "simistorelocator_id": "bc8c816f-0cbb-4662-9e7f-259b7bde1790", "zoom_level": 14, "longitude": 105.90408328840311}, {"store_name": "Nh\u00e0 th\u1edd h\u1ecd \u0110\u1ed7 Quang", "image": "", "description": "", "address": "", "city": "5", "phuong": "163", "loai_hinh": "", "xep_hang": "", "le_hoi": "", "coordinates": "21.224353184026644, 105.67935798667864", "latitude": 21.224353184026644, "link_web": "", "id_detail": "f78f4cf3-7ba7-49f9-bd75-4f8cd4719eee", "simistorelocator_id": "248c5741-456f-4b1c-85ae-8c5ce783b55a", "zoom_level": 14, "longitude": 105.67935798667864}, {"store_name": "Mi\u1ebfu \u0110\u1ed3ng Xa", "image": "", "description": "", "address": "", "city": "5", "phuong": "163", "loai_hinh": "", "xep_hang": "", "le_hoi": "", "coordinates": "21.09328398152868, 105.73100248742338", "latitude": 21.09328398152868, "link_web": "", "id_detail": "8bd3f5b9-7340-4c4d-ad7f-4af4e919afd8", "simistorelocator_id": "5d4c18ef-f86a-4026-8b97-9f2ee4b2d74d", "zoom_level": 14, "longitude": 105.73100248742338}, {"store_name": "Ch\u00f9a Quan Hoa", "image": "", "description": "", "address": "", "city": "5", "phuong": "169", "loai_hinh": "", "xep_hang": "", "le_hoi": "", "coordinates": "21.034716502799384, 105.8036495405987", "latitude": 21.034716502799384, "link_web": "", "id_detail": "a9318579-2187-4949-b81a-bb5263c69818", "simistorelocator_id": "2ac5cf2b-377f-4c18-a65a-0f8008645bcd", "zoom_level": 14, "longitude": 105.8036495405987}, {"store_name": "Mi\u1ebfu Quan Hoa", "image": "", "description": "", "address": "", "city": "5", "phuong": "169", "loai_hinh": "", "xep_hang": "", "le_hoi": "", "coordinates": "21.033454910271782, 105.80297632525696", "latitude": 21.033454910271782, "link_web": "", "id_detail": "44d5e55a-1133-41a3-aa57-62c5cbf01279", "simistorelocator_id": "6cea5656-04c6-4875-b6d7-75a359b07083", "zoom_level": 14, "longitude": 105.80297632525696}, {"store_name": "\u0110\u1ec1n Quan Hoa", "image": "", "description": "", "address": "", "city": "5", "phuong": "169", "loai_hinh": "", "xep_hang": "", "le_hoi": "", "coordinates": "21.034035110119227, 105.80219041653586", "latitude": 21.034035110119227, "link_web": "", "id_detail": "daab1a51-a17c-4d36-83a2-a6b57314bcc2", "simistorelocator_id": "3f9ea263-7c8e-45c7-b51a-2f2c6b5672bf", "zoom_level": 14, "longitude": 105.80219041653586}, {"store_name": "Ch\u00f9a Hoa L\u0103ng (X\u00f3m Du\u1ec7)", "image": "", "description": "", "address": "X\u00f3m Du\u1ec7", "city": "5", "phuong": "169", "loai_hinh": "", "xep_hang": "", "le_hoi": "", "coordinates": "21.0393379800215, 105.80538325594142", "latitude": 21.0393379800215, "link_web": "", "id_detail": "2b080204-5809-4f53-9c6b-11ecd604640d", "simistorelocator_id": "757caa92-76ae-4a19-a767-264cbf5d554f", "zoom_level": 14, "longitude": 105.80538325594142}, {"store_name": "Ch\u00f9a Linh Th\u00f4ng (C\u00e2y Th\u00f4ng)", "image": "", "description": "", "address": "Th\u00f4n H\u00f2a M\u1ee5c", "city": "5", "phuong": "Ph\u01b0\u1eddng Trung H\u00f2a", "loai_hinh": "", "xep_hang": "", "le_hoi": "", "coordinates": "21.00890695558366, 105.81091055593254", "latitude": 21.00890695558366, "link_web": "", "id_detail": "c91939b2-faa3-44e1-94b3-d5d03567256d", "simistorelocator_id": "a97876b6-7a48-4eb0-83ec-33bffba78be4", "zoom_level": 14, "longitude": 105.81091055593254}, {"store_name": "\u0110\u1ec1n Trung K\u00ednh H\u1ea1", "image": "", "description": "", "address": "Th\u00f4n H\u00f2a M\u1ee5c", "city": "5", "phuong": "Ph\u01b0\u1eddng Trung H\u00f2a", "loai_hinh": "", "xep_hang": "", "le_hoi": "", "coordinates": "21.01484623756603, 105.79559841496663", "latitude": 21.01484623756603, "link_web": "", "id_detail": "6d06bc58-3930-47f4-81b6-9270425b282b", "simistorelocator_id": "10856b70-37b2-4ea6-8bb7-617c6114112a", "zoom_level": 14, "longitude": 105.79559841496663}, {"store_name": "Mi\u1ebfu Trung K\u00ednh H\u1ea1", "image": "", "description": "", "address": "Th\u00f4n H\u00f2a M\u1ee5c", "city": "5", "phuong": "Ph\u01b0\u1eddng Trung H\u00f2a", "loai_hinh": "", "xep_hang": "", "le_hoi": "", "coordinates": "21.013688354341802, 105.79560525990982", "latitude": 21.013688354341802, "link_web": "", "id_detail": "a2687cb4-96ca-429f-aa16-aa0d0a2e480e", "simistorelocator_id": "f2e3a9f7-486e-4d4e-bf50-83601390f868", "zoom_level": 14, "longitude": 105.79560525990982}, {"store_name": "Nh\u00e0 th\u1edd h\u1ecd Nguy\u1ec5n Kh\u00e1nh", "image": "", "description": "", "address": "Th\u00f4n H\u00f2a M\u1ee5c", "city": "5", "phuong": "Ph\u01b0\u1eddng Trung H\u00f2a", "loai_hinh": "", "xep_hang": "", "le_hoi": "", "coordinates": "20.72802128403765, 105.78386091193214", "latitude": 20.72802128403765, "link_web": "", "id_detail": "970c47a6-28aa-440e-b5ab-1e8c3f67d724", "simistorelocator_id": "dd0cd3f4-21fd-45d6-8251-eea18ca8adcf", "zoom_level": 14, "longitude": 105.78386091193214}, {"store_name": "Mi\u1ebfu L\u0103ng (mi\u1ebfu Th\u01b0\u1ee3ng)", "image": "", "description": "", "address": "Th\u00f4n H\u00f2a M\u1ee5c", "city": "5", "phuong": "Ph\u01b0\u1eddng Trung H\u00f2a", "loai_hinh": "", "xep_hang": "", "le_hoi": "", "coordinates": "21.126251053734485, 105.72537182392966", "latitude": 21.126251053734485, "link_web": "", "id_detail": "b801c914-c69e-40d5-91c8-730322f0e5f7", "simistorelocator_id": "c367c128-e9ef-466c-b2da-29d9813468a6", "zoom_level": 14, "longitude": 105.72537182392966}, {"store_name": "Ch\u00f9a B\u00e1i \u00c2n", "image": "", "description": "", "address": "Kh\u1ed1i I", "city": "5", "phuong": "157", "loai_hinh": "", "xep_hang": "", "le_hoi": "", "coordinates": "21.055933525845926, 105.80643105604577", "latitude": 21.055933525845926, "link_web": "", "id_detail": "2a0a2ed4-d5a6-4367-9e02-a489c4cabd77", "simistorelocator_id": "2a9534e2-5502-4c31-95d2-57bd602e205e", "zoom_level": 14, "longitude": 105.80643105604577}, {"store_name": "\u0110\u00ecnh B\u00e1i \u00c2n v\u00e0 Qu\u00e1n c\u00e2y ao c\u00e1", "image": "", "description": "", "address": "Kh\u1ed1i I", "city": "5", "phuong": "157", "loai_hinh": "", "xep_hang": "", "le_hoi": "", "coordinates": "21.054133485436008, 105.80784555604527", "latitude": 21.054133485436008, "link_web": "", "id_detail": "312b4a86-1edf-45b3-916e-5659644f0e4e", "simistorelocator_id": "6a2bc6e5-6a57-4aef-9529-ef086fcd35f6", "zoom_level": 14, "longitude": 105.80784555604527}, {"store_name": "Ch\u00f9a Ph\u00fac Long (ch\u00f9a D\u00e2u)", "image": "", "description": "", "address": "Kh\u1ed1i V", "city": "5", "phuong": "157", "loai_hinh": "", "xep_hang": "", "le_hoi": "", "coordinates": "21.02096667083134, 105.93673879057732", "latitude": 21.02096667083134, "link_web": "", "id_detail": "75a17d1c-49cd-4d97-a2e4-275106171094", "simistorelocator_id": "8ef24ac6-9b6c-4f62-9468-7d9cbd2a7918", "zoom_level": 14, "longitude": 105.93673879057732}, {"store_name": "\u0110\u00ecnh Ngh\u00e8", "image": "", "description": "", "address": "Th\u00f4n Trung Nha", "city": "5", "phuong": "157", "loai_hinh": "", "xep_hang": "", "le_hoi": "", "coordinates": "20.995664500181263, 105.85809615602805", "latitude": 20.995664500181263, "link_web": "", "id_detail": "a3dccdcf-090c-4398-80a1-b08029a56659", "simistorelocator_id": "40c7a964-b759-42f4-b705-a6e7ca845834", "zoom_level": 14, "longitude": 105.85809615602805}, {"store_name": "\u0110\u00ecnh T\u00e2n", "image": "", "description": "", "address": "Th\u00f4n Trung Nha", "city": "5", "phuong": "157", "loai_hinh": "", "xep_hang": "", "le_hoi": "", "coordinates": "20.992455375072833, 105.87440332695785", "latitude": 20.992455375072833, "link_web": "", "id_detail": "aff66be8-1e8d-4fc1-abcf-7d9f71c8dc79", "simistorelocator_id": "9f6f7b3e-87a8-4cf2-938d-e9d1ccf8c1ae", "zoom_level": 14, "longitude": 105.87440332695785}, {"store_name": "M\u1ed9 c\u00e1c ngh\u0129a s\u0129 v\u1ee5 H\u00e0 th\u00e0nh \u0111\u1ea7u \u0111\u1ed9c", "image": "", "description": "", "address": "Th\u00f4n Trung Nha", "city": "5", "phuong": "157", "loai_hinh": "", "xep_hang": "", "le_hoi": "", "coordinates": "21.049375162959304, 105.80532015604383", "latitude": 21.049375162959304, "link_web": "", "id_detail": "e5705c88-a043-42b5-a04f-2bdb3d4a765e", "simistorelocator_id": "f988b0d8-b6ba-46c6-9ff1-cf1b58683b91", "zoom_level": 14, "longitude": 105.80532015604383}, {"store_name": "Ch\u00f9a Quang \u00c2n", "image": "", "description": "", "address": "Kh\u1ed1i III", "city": "5", "phuong": "157", "loai_hinh": "", "xep_hang": "", "le_hoi": "", "coordinates": "20.96655587894413, 105.81210612533384", "latitude": 20.96655587894413, "link_web": "", "id_detail": "98683322-4e90-4f2e-b463-8ad4d8179083", "simistorelocator_id": "3730cb44-f4c9-4035-95b6-47c48b41f3c1", "zoom_level": 14, "longitude": 105.81210612533384}, {"store_name": "Mi\u1ebfu An H\u00f2a", "image": "", "description": "", "address": "Kh\u1ed1i III", "city": "5", "phuong": "Ph\u01b0\u1eddng Y\u00ean H\u00f2a", "loai_hinh": "", "xep_hang": "", "le_hoi": "", "coordinates": "21.029904765963092, 105.79857856000967", "latitude": 21.029904765963092, "link_web": "", "id_detail": "6ebc9b98-caa1-465d-a897-4a8912a0d511", "simistorelocator_id": "3b8c7eca-20fd-47e3-8316-fdd2bf2c9c30", "zoom_level": 14, "longitude": 105.79857856000967}, {"store_name": "Mi\u1ebfu C\u1ea3", "image": "", "description": "", "address": "Kh\u1ed1i III", "city": "5", "phuong": "Ph\u01b0\u1eddng Y\u00ean H\u00f2a", "loai_hinh": "", "xep_hang": "", "le_hoi": "", "coordinates": "21.029263782349194, 105.77874649639934", "latitude": 21.029263782349194, "link_web": "", "id_detail": "df0591f4-fc25-44ab-b86d-578544372db8", "simistorelocator_id": "8bab947f-73e8-4f43-9ef9-5bce07e8689b", "zoom_level": 14, "longitude": 105.77874649639934}, {"store_name": "Mi\u1ebfu Ch\u1ee3", "image": "", "description": "", "address": "Kh\u1ed1i III", "city": "5", "phuong": "Ph\u01b0\u1eddng Y\u00ean H\u00f2a", "loai_hinh": "", "xep_hang": "", "le_hoi": "", "coordinates": "21.019388892547227, 105.8392637560349", "latitude": 21.019388892547227, "link_web": "", "id_detail": "5df9ab71-4576-43de-bab7-9671c3b3a800", "simistorelocator_id": "07160e18-f854-4dc4-bb31-fc576a1aae20", "zoom_level": 14, "longitude": 105.8392637560349}, {"store_name": "Ch\u00f9a An Qu\u1ed1c (ch\u00f9a B\u00edch C\u00e2u)", "image": "", "description": "", "address": "S\u1ed1 12-14 ph\u1ed1 C\u00e1t Linh", "city": "6", "phuong": "178", "loai_hinh": "", "xep_hang": "", "le_hoi": "", "coordinates": "21.029447018427728, 105.83279384069516", "latitude": 21.029447018427728, "link_web": "", "id_detail": "5feae438-924c-47e6-a9d0-33d7d61bc785", "simistorelocator_id": "1048baa1-a43e-421a-90ae-726a626218c8", "zoom_level": 14, "longitude": 105.83279384069516}, {"store_name": "Ch\u00f9a Xi\u1ec3n Ph\u00e1p (ch\u00f9a Tr\u1ea1i)", "image": "", "description": "", "address": "Ng\u00f5 40 ph\u1ed1 C\u00e1t Linh", "city": "6", "phuong": "178", "loai_hinh": "", "xep_hang": "", "le_hoi": "", "coordinates": "21.042028213616337, 105.76743749468176", "latitude": 21.042028213616337, "link_web": "", "id_detail": "d93fa54a-2a65-46db-bb05-f8d47240c1dd", "simistorelocator_id": "f00933eb-00aa-4961-8bb1-122ec46f0958", "zoom_level": 14, "longitude": 105.76743749468176}, {"store_name": "\u0110\u1ec1n B\u00e0 Ch\u00faa Kho", "image": "", "description": "", "address": "Ng\u00f5 114 ph\u1ed1 Gi\u1ea3ng V\u00f5", "city": "6", "phuong": "178", "loai_hinh": "", "xep_hang": "", "le_hoi": "", "coordinates": "21.02965986011359, 105.82652885603808", "latitude": 21.02965986011359, "link_web": "", "id_detail": "86f3f794-4248-472a-8dcc-8561fc7f15ce", "simistorelocator_id": "d737ca51-9530-4bfe-9076-aeffb91e66eb", "zoom_level": 14, "longitude": 105.82652885603808}, {"store_name": "\u0110\u1ec1n V\u1ecdng Ti\u00ean H\u01b0\u01a1ng", "image": "", "description": "", "address": "S\u1ed1 19 ng\u00f5 Th\u1ed5 Quan 3, ph\u1ed1 T\u00f4n \u0110\u1ee9c Th\u1eafng", "city": "6", "phuong": "196", "loai_hinh": "", "xep_hang": "", "le_hoi": "", "coordinates": "21.117926475396352, 105.84069187336003", "latitude": 21.117926475396352, "link_web": "", "id_detail": "e41d43d5-7bb3-49a5-afe6-6648753c4dd8", "simistorelocator_id": "76729308-a64a-4f51-9c77-691a4811cd34", "zoom_level": 14, "longitude": 105.84069187336003}, {"store_name": "\u0110\u00ecnh Th\u1ecbnh H\u00e0o", "image": "", "description": "", "address": "190 T\u00f4n \u0110\u1ee9c Th\u1eafng", "city": "6", "phuong": "196", "loai_hinh": "", "xep_hang": "", "le_hoi": "", "coordinates": "21.0249942346717, 105.83067005603661", "latitude": 21.0249942346717, "link_web": "", "id_detail": "c61e6535-c58f-419e-967b-55c442409044", "simistorelocator_id": "c38c12af-3371-44a1-83b0-8c55b512c38c", "zoom_level": 14, "longitude": 105.83067005603661}, {"store_name": "Mi\u1ebfu g\u1ed1c c\u00e2y g\u1ea1o", "image": "", "description": "", "address": "", "city": "6", "phuong": "196", "loai_hinh": "", "xep_hang": "", "le_hoi": "", "coordinates": "21.239624816308766, 106.26964075069064", "latitude": 21.239624816308766, "link_web": "", "id_detail": "37e11f64-99c8-40ec-9b7d-e3f1f6729176", "simistorelocator_id": "2986a925-2089-4419-b22e-db8aa82d1c1d", "zoom_level": 14, "longitude": 106.26964075069064}, {"store_name": "DTCM 398 Kh\u00e2m Thi\u00ean", "image": "", "description": "", "address": "", "city": "6", "phuong": "202", "loai_hinh": "", "xep_hang": "", "le_hoi": "", "coordinates": "21.02016500737966, 105.83064314069239", "latitude": 21.02016500737966, "link_web": "", "id_detail": "f798d52c-f7e4-41e8-be13-95327aa5847f", "simistorelocator_id": "bf43251b-6a94-44a6-855c-eb6f45063f40", "zoom_level": 14, "longitude": 105.83064314069239}, {"store_name": "\u0110i\u1ec7n Tam Kh\u01b0\u01a1ng", "image": "", "description": "", "address": "Sau \u0110\u1ea1i h\u1ecdc Th\u1ee7y l\u1ee3i", "city": "6", "phuong": "238", "loai_hinh": "", "xep_hang": "", "le_hoi": "", "coordinates": "21.00434191750225, 105.82458397931651", "latitude": 21.00434191750225, "link_web": "", "id_detail": "078526c2-2a83-4ebe-9837-f0851aa562aa", "simistorelocator_id": "85387235-fb49-4c28-9e5c-8f4ad24eb65a", "zoom_level": 14, "longitude": 105.82458397931651}, {"store_name": "Nh\u00e0 th\u1edd Nguy\u1ec5n H\u1eefu C\u1ea7u", "image": "", "description": "", "address": "S\u1ed1 278 t\u1ed5 81 Kim Li\u00ean", "city": "6", "phuong": "229", "loai_hinh": "", "xep_hang": "", "le_hoi": "", "coordinates": "20.991141317239745, 105.80006742315764", "latitude": 20.991141317239745, "link_web": "", "id_detail": "17f65898-75d9-4cd2-98bb-1a1fd90dd304", "simistorelocator_id": "b08baee6-32a4-48ec-bb09-8b5d8dee1e5e", "zoom_level": 14, "longitude": 105.80006742315764}, {"store_name": "Ch\u00f9a C\u1ea3m \u1ee8ng (ch\u00f9a M\u1ee9ng)", "image": "", "description": "", "address": "538 \u0110\u01b0\u1eddng L\u00e1ng", "city": "6", "phuong": "199", "loai_hinh": "", "xep_hang": "", "le_hoi": "", "coordinates": "21.013061506618286, 105.81036277137605", "latitude": 21.013061506618286, "link_web": "", "id_detail": "a5830ae4-5447-4869-8f94-b8ddb7310548", "simistorelocator_id": "af5c2a6e-2cdf-45fc-ab3c-a35e5deb6318", "zoom_level": 14, "longitude": 105.81036277137605}, {"store_name": "\u0110\u1ec1n Vua B\u00e0", "image": "", "description": "", "address": "110 ph\u1ed1 Ch\u00f9a L\u00e1ng", "city": "6", "phuong": "199", "loai_hinh": "", "xep_hang": "", "le_hoi": "", "coordinates": "20.89955039986554, 105.71611660599989", "latitude": 20.89955039986554, "link_web": "", "id_detail": "21b14e21-c586-4117-a4f5-e3fbb3c35409", "simistorelocator_id": "5e23044b-abb0-4a65-9fc8-258d3078e936", "zoom_level": 14, "longitude": 105.71611660599989}, {"store_name": "\u0110\u1ec1n V\u01b0\u1eddn", "image": "", "description": "", "address": "T\u1ed5 17B ng\u00f5 Ph\u00e1o \u0110\u00e0i L\u00e1ng", "city": "6", "phuong": "187", "loai_hinh": "", "xep_hang": "", "le_hoi": "", "coordinates": "21.019245993304917, 105.80375845603497", "latitude": 21.019245993304917, "link_web": "", "id_detail": "0a3f71d1-9a28-4d6f-be7e-34a2b6cf052a", "simistorelocator_id": "cb102d93-26ac-4266-8cad-1b9e12b7e6ca", "zoom_level": 14, "longitude": 105.80375845603497}, {"store_name": "DTCM 68 Nam \u0110\u1ed3ng", "image": "", "description": "", "address": "68 Nam \u0110\u1ed3ng", "city": "6", "phuong": "208", "loai_hinh": "", "xep_hang": "", "le_hoi": "", "coordinates": "21.014098178352825, 105.8330211560335", "latitude": 21.014098178352825, "link_web": "", "id_detail": "83566112-9908-47cb-8cec-1bf24d0c6729", "simistorelocator_id": "4fa546f7-a3e6-49c2-8a2a-6785aff3a6f7", "zoom_level": 14, "longitude": 105.8330211560335}, {"store_name": "\u0110\u00ecnh X\u00e3 \u0110\u00e0n", "image": "", "description": "", "address": "Ng\u00f5 X\u00e3 \u0110\u00e0n II, ph\u1ed1 Nguy\u1ec5n L\u01b0\u01a1ng B\u1eb1ng", "city": "6", "phuong": "208", "loai_hinh": "", "xep_hang": "", "le_hoi": "", "coordinates": "21.012843069490664, 105.83799492534746", "latitude": 21.012843069490664, "link_web": "", "id_detail": "b60064ea-cb51-4f72-98af-bc339b0bafa4", "simistorelocator_id": "27362cc6-52dd-470e-8cdd-d6b3dc8e6b9d", "zoom_level": 14, "longitude": 105.83799492534746}, {"store_name": "\u0110\u00ecnh \u0110\u00f4ng C\u00e1c", "image": "", "description": "", "address": "19 \u0110\u00ea La Th\u00e0nh", "city": "6", "phuong": "190", "loai_hinh": "", "xep_hang": "", "le_hoi": "", "coordinates": "21.020463684562976, 105.82741595603527", "latitude": 21.020463684562976, "link_web": "", "id_detail": "7fe4d589-7b81-4b50-8d1f-b71bcea57b55", "simistorelocator_id": "b0b86597-2caf-4cd5-ad1d-71f0709cee9a", "zoom_level": 14, "longitude": 105.82741595603527}, {"store_name": "DTCM hi\u1ec7u B\u1ed1i Th\u1ecbnh", "image": "", "description": "", "address": "5 \u00d4 Ch\u1ee3 D\u1eeba", "city": "6", "phuong": "190", "loai_hinh": "", "xep_hang": "", "le_hoi": "", "coordinates": "21.019931149064096, 105.82930805603515", "latitude": 21.019931149064096, "link_web": "", "id_detail": "413e7389-559e-409a-8891-6b5af3e26375", "simistorelocator_id": "569dd3b6-53ac-44c1-b0e5-bfccb1b6b743", "zoom_level": 14, "longitude": 105.82930805603515}, {"store_name": "DTCM 321 \u00d4 Ch\u1ee3 D\u1eeba", "image": "", "description": "", "address": "321 \u00d4 Ch\u1ee3 D\u1eeba", "city": "6", "phuong": "190", "loai_hinh": "", "xep_hang": "", "le_hoi": "", "coordinates": "21.02130420002416, 105.82695954069276", "latitude": 21.02130420002416, "link_web": "", "id_detail": "522709e4-c6ea-47d0-856c-1dea2affd591", "simistorelocator_id": "32455671-85cc-4059-b0d0-a63e4846295d", "zoom_level": 14, "longitude": 105.82695954069276}, {"store_name": "M\u1ed9 danh nh\u00e2n Mai Anh Tu\u1ea5n", "image": "", "description": "", "address": "243 nh\u00e0 C, t\u1eadp th\u1ec3 C\u00f4ng ty t\u00e0u bi\u1ec3n", "city": "6", "phuong": "190", "loai_hinh": "", "xep_hang": "", "le_hoi": "", "coordinates": "21.017334144119122, 105.82281395603442", "latitude": 21.017334144119122, "link_web": "", "id_detail": "2e511b3f-c82f-47de-8303-f3b19b26ce83", "simistorelocator_id": "0248b5a2-8726-4bdd-812e-ff5e074902e3", "zoom_level": 14, "longitude": 105.82281395603442}, {"store_name": "\u0110\u1ec1n Am (\u0111\u1ec1n V\u0129nh Th\u00e1i)", "image": "", "description": "", "address": "290 Nguy\u1ec5n L\u01b0\u01a1ng B\u1eb1ng", "city": "269", "phuong": "9583", "loai_hinh": "", "xep_hang": "", "le_hoi": "", "coordinates": "21.037639511234783, 105.82658984695689", "latitude": 21.037639511234783, "link_web": "", "id_detail": "569990ed-6ef9-4d35-922b-399f8619b987", "simistorelocator_id": "88569d5a-6357-463e-8bc8-259d18f7261c", "zoom_level": 14, "longitude": 105.82658984695689}, {"store_name": "\u0110\u1ec1n C\u01a1 C\u00f4ng", "image": "", "description": "", "address": "Ng\u00f5 100, ng\u00e1ch 20 \u0111\u01b0\u1eddng Nguy\u1ec5n L\u01b0\u01a1ng B\u1eb1ng", "city": "269", "phuong": "9583", "loai_hinh": "", "xep_hang": "", "le_hoi": "", "coordinates": "21.015025879413933, 105.86247795603374", "latitude": 21.015025879413933, "link_web": "", "id_detail": "1054fa56-0f96-460a-ad90-966890504b42", "simistorelocator_id": "aaee0277-1b46-4774-91ea-934ce8201913", "zoom_level": 14, "longitude": 105.86247795603374}, {"store_name": "\u0110\u1ec1n Quang Trung", "image": "", "description": "", "address": "191 ph\u1ed1 T\u00e2y S\u01a1n", "city": "269", "phuong": "9583", "loai_hinh": "", "xep_hang": "", "le_hoi": "", "coordinates": "21.012842292922006, 105.8244430560331", "latitude": 21.012842292922006, "link_web": "", "id_detail": "44772b0c-7688-4db9-926b-5a4d59e63fa4", "simistorelocator_id": "f87e0a3b-1632-460b-8639-be8ed0688bad", "zoom_level": 14, "longitude": 105.8244430560331}, {"store_name": "\u0110\u1ec1n Trung Li\u1ec7t", "image": "", "description": "", "address": "Ph\u1ed1 T\u00e2y S\u01a1n", "city": "269", "phuong": "9583", "loai_hinh": "", "xep_hang": "", "le_hoi": "", "coordinates": "21.01357952752037, 105.82462196034065", "latitude": 21.01357952752037, "link_web": "", "id_detail": "87e44b36-2cb0-4ae5-8921-4125fb4b586a", "simistorelocator_id": "4a218192-ad79-4180-b61d-e7da5051fce5", "zoom_level": 14, "longitude": 105.82462196034065}, {"store_name": "Thanh Mi\u1ebfu", "image": "", "description": "", "address": "14 \u0111\u01b0\u1eddng Ch\u00f9a B\u1ed9c", "city": "269", "phuong": "9583", "loai_hinh": "", "xep_hang": "", "le_hoi": "", "coordinates": "21.0304318980895, 105.8374624406954", "latitude": 21.0304318980895, "link_web": "", "id_detail": "930b8fe9-0f38-436d-a6a5-c4b1754f1300", "simistorelocator_id": "0486f4e5-6f1d-4cb6-9be4-55a17cddfc5f", "zoom_level": 14, "longitude": 105.8374624406954}, {"store_name": "Ch\u00f9a Th\u00e1i H\u00e0", "image": "", "description": "", "address": "C\u1ea1nh \u0111\u1ec1n Trung Li\u1ec7t", "city": "269", "phuong": "9583", "loai_hinh": "", "xep_hang": "", "le_hoi": "", "coordinates": "21.014367512952703, 105.81993211740473", "latitude": 21.014367512952703, "link_web": "", "id_detail": "df03f100-f01b-4f18-a79b-be8614e00877", "simistorelocator_id": "9f4ab354-b594-4f55-a021-9a536bbe09f8", "zoom_level": 14, "longitude": 105.81993211740473}, {"store_name": "DTCM 312 Kh\u00e2m Thi\u00ean", "image": "", "description": "", "address": "312 Kh\u00e2m Thi\u00ean", "city": "6", "phuong": "205", "loai_hinh": "", "xep_hang": "", "le_hoi": "", "coordinates": "21.020227408354998, 105.8330303560353", "latitude": 21.020227408354998, "link_web": "", "id_detail": "819c97a8-6796-42aa-83ce-0262b2e7a14e", "simistorelocator_id": "124a0478-e995-4364-b284-fab6f3ce82c0", "zoom_level": 14, "longitude": 105.8330303560353}, {"store_name": "\u0110\u00ecnh Quan Th\u1ed5", "image": "", "description": "", "address": "133 ng\u00f5 Ki\u1ebfn Thi\u1ebft, ph\u1ed1 Kh\u00e2m Thi\u00ean", "city": "6", "phuong": "205", "loai_hinh": "", "xep_hang": "", "le_hoi": "", "coordinates": "21.01687452549805, 105.8349803174056", "latitude": 21.01687452549805, "link_web": "", "id_detail": "6e6fe07c-fc07-449a-a213-90df06510728", "simistorelocator_id": "b05ad2b8-e139-4a43-a344-7b7f360d83a7", "zoom_level": 14, "longitude": 105.8349803174056}, {"store_name": "\u0110\u1ec1n Kh\u00e2m \u0110\u1ee9c", "image": "", "description": "", "address": "68 ng\u00f5 ch\u1ee3 Kh\u00e2m Thi\u00ean", "city": "6", "phuong": "211", "loai_hinh": "", "xep_hang": "", "le_hoi": "", "coordinates": "21.01843642482557, 105.83862811908594", "latitude": 21.01843642482557, "link_web": "", "id_detail": "c59c16de-8598-400c-aa40-a4d5d4b49211", "simistorelocator_id": "c32c5638-cffe-4ad2-8f65-8c025cf0a0b5", "zoom_level": 14, "longitude": 105.83862811908594}, {"store_name": "\u0110\u1ec1n Trung Ph\u1ee5ng", "image": "", "description": "", "address": "Ng\u00f5 ch\u1ee3 Kh\u00e2m Thi\u00ean", "city": "6", "phuong": "211", "loai_hinh": "", "xep_hang": "", "le_hoi": "", "coordinates": "21.016125900945394, 105.83820282534843", "latitude": 21.016125900945394, "link_web": "", "id_detail": "16c78b36-b481-4425-8d49-461a67ae72b9", "simistorelocator_id": "0b45641c-2871-4b73-b2cc-70eeef0cc6f4", "zoom_level": 14, "longitude": 105.83820282534843}, {"store_name": "\u0110\u00ecnh Trung Ph\u1ee5ng", "image": "", "description": "", "address": "Ng\u00f5 6 ch\u1ee3 Kh\u00e2m Thi\u00ean", "city": "6", "phuong": "211", "loai_hinh": "", "xep_hang": "", "le_hoi": "", "coordinates": "21.0152842,105.8295339", "latitude": 21.0152842, "link_web": "", "id_detail": "30d022bf-0be3-4496-ac08-3d04c43a45a8", "simistorelocator_id": "9ccf28cb-3fc6-479b-805c-c4013dd1e0b0", "zoom_level": 14, "longitude": 105.8295339}, {"store_name": "\u0110\u00ecnh Kh\u00e2m \u0110\u1ee9c", "image": "", "description": "", "address": "68 ng\u00f5 ch\u1ee3 Kh\u00e2m Thi\u00ean", "city": "6", "phuong": "211", "loai_hinh": "", "xep_hang": "", "le_hoi": "", "coordinates": "21.018288261730355, 105.83863197385759", "latitude": 21.018288261730355, "link_web": "", "id_detail": "e5f886b3-27b7-4b3a-880a-fdc80f96fd70", "simistorelocator_id": "e47dff59-e571-4d61-a754-e62d61f5e676", "zoom_level": 14, "longitude": 105.83863197385759}, {"store_name": "\u0110\u00ecnh Th\u00e1i Ki\u1ec1u (\u0110\u00ecnh Th\u00e1i Hi\u1ec7u)", "image": "", "description": "", "address": "Ng\u00f5 10 ph\u1ed1 Kh\u00e2m Thi\u00ean", "city": "6", "phuong": "211", "loai_hinh": "", "xep_hang": "", "le_hoi": "", "coordinates": "21.016553227140687, 105.83636321000576", "latitude": 21.016553227140687, "link_web": "", "id_detail": "3b810bee-c962-4be4-91ba-ab264b211287", "simistorelocator_id": "bfe76bc3-675f-45b7-8aee-2e240a332d7e", "zoom_level": 14, "longitude": 105.83636321000576}, {"store_name": "\u0110\u00ecnh T\u00f4 Ti\u1ec1n", "image": "", "description": "", "address": "Ng\u00f5 T\u00f4 Ti\u1ec1n, ph\u1ed1 Kh\u00e2m Thi\u00ean", "city": "6", "phuong": "211", "loai_hinh": "", "xep_hang": "", "le_hoi": "", "coordinates": "21.0186619,105.8289407", "latitude": 21.0186619, "link_web": "", "id_detail": "c71d7220-c158-4f05-bbe9-b5353c62d4c1", "simistorelocator_id": "ddaec879-26ca-43f7-89a6-126dfd33ea47", "zoom_level": 14, "longitude": 105.8289407}, {"store_name": "\u0110\u00ecnh Trung K\u00ednh", "image": "", "description": "", "address": "Ng\u00f5 V\u1ea1n \u1ee8ng, Kh\u00e2m Thi\u00ean", "city": "6", "phuong": "211", "loai_hinh": "", "xep_hang": "", "le_hoi": "", "coordinates": "21.01381892542396, 105.80522231740467", "latitude": 21.01381892542396, "link_web": "", "id_detail": "597594bc-da77-4a4e-8f58-fe1435a80661", "simistorelocator_id": "f18ca4d2-b0c8-4aba-825c-514f85bcefdf", "zoom_level": 14, "longitude": 105.80522231740467}, {"store_name": "\u0110\u00ecnh L\u01b0\u01a1ng S\u1eed", "image": "", "description": "", "address": "s\u1ed1 2 ng\u00f5 L\u01b0\u01a1ng S\u1eed, ph\u1ed1 Qu\u1ed1c T\u1eed Gi\u00e1m", "city": "6", "phuong": "193", "loai_hinh": "", "xep_hang": "", "le_hoi": "", "coordinates": "21.026550492036847, 105.83631868672278", "latitude": 21.026550492036847, "link_web": "", "id_detail": "bfe6e928-acae-4a98-ab40-78d69d62112f", "simistorelocator_id": "3d3c922c-b333-4907-8e19-cf3fb49b2cd6", "zoom_level": 14, "longitude": 105.83631868672278}, {"store_name": "\u0110\u1ec1n V\u0103n Ch\u01b0\u01a1ng", "image": "", "description": "", "address": "20 ng\u00f5 V\u0103n Ch\u01b0\u01a1ng, ph\u1ed1 Kh\u00e2m Thi\u00ean", "city": "6", "phuong": "193", "loai_hinh": "", "xep_hang": "", "le_hoi": "", "coordinates": "21.040284431783036, 105.84576665604114", "latitude": 21.040284431783036, "link_web": "", "id_detail": "d9a91a31-5a8e-4352-b86a-eda38f330984", "simistorelocator_id": "9163ac0e-98ad-4a83-9a11-6ea76a473fa1", "zoom_level": 14, "longitude": 105.84576665604114}, {"store_name": "V\u0103n ch\u1ec9 V\u0103n Ch\u01b0\u01a1ng", "image": "", "description": "", "address": "20 ng\u00f5 V\u0103n Ch\u01b0\u01a1ng, ph\u1ed1 Kh\u00e2m Thi\u00ean", "city": "6", "phuong": "193", "loai_hinh": "", "xep_hang": "", "le_hoi": "", "coordinates": "21.02167355400931, 105.8368254713784", "latitude": 21.02167355400931, "link_web": "", "id_detail": "b45a6b03-fd6a-45cb-b63c-ef59879f1ec6", "simistorelocator_id": "ea875079-60e4-42fb-8e87-3a965e7569e1", "zoom_level": 14, "longitude": 105.8368254713784}, {"store_name": "\u0110\u1ec1n H\u00e0ng \u0110\u0169a (\u0111\u1ec1n H\u00e0ng C\u00e0)", "image": "", "description": "", "address": "26 ph\u1ed1 Tr\u1ea7n Qu\u00fd C\u00e1p", "city": "6", "phuong": "181", "loai_hinh": "", "xep_hang": "", "le_hoi": "", "coordinates": "21.02652559217758, 105.83930515603713", "latitude": 21.02652559217758, "link_web": "", "id_detail": "db600c73-f807-4aac-ad37-684ff899f5cc", "simistorelocator_id": "09b94649-3e55-46b4-868b-c03caf67f6d8", "zoom_level": 14, "longitude": 105.83930515603713}, {"store_name": "\u0110\u1ec1n V\u0103n T\u00e2n", "image": "", "description": "", "address": "82 ph\u1ed1 Nguy\u1ec5n Khuy\u1ebfn", "city": "6", "phuong": "181", "loai_hinh": "", "xep_hang": "", "le_hoi": "", "coordinates": "21.029195806406168, 105.83907455603783", "latitude": 21.029195806406168, "link_web": "", "id_detail": "6a11d8e4-b338-4822-abd6-7bbca87f25ae", "simistorelocator_id": "68dd9c4e-9d3f-4432-ac81-7a35ad8f6fa1", "zoom_level": 14, "longitude": 105.83907455603783}, {"store_name": "\u0110\u1ec1n V\u0103n X\u01b0\u01a1ng", "image": "", "description": "", "address": "130 ph\u1ed1 Nguy\u1ec5n Khuy\u1ebfn", "city": "6", "phuong": "181", "loai_hinh": "", "xep_hang": "", "le_hoi": "", "coordinates": "21.031408937802105, 105.85229634069577", "latitude": 21.031408937802105, "link_web": "", "id_detail": "1ca3744f-ed92-417f-879c-f750a52d1f9c", "simistorelocator_id": "a1dab22e-db6f-484b-b3ea-d5115213c247", "zoom_level": 14, "longitude": 105.85229634069577}, {"store_name": "\u0110i\u1ec7n An H\u00f2a", "image": "", "description": "", "address": "38 ph\u1ed1 Tr\u1ea7n Qu\u00fd C\u00e1p", "city": "6", "phuong": "181", "loai_hinh": "", "xep_hang": "", "le_hoi": "", "coordinates": "20.9851295564032, 105.78981845602479", "latitude": 20.9851295564032, "link_web": "", "id_detail": "488895b1-9cee-4404-b8fd-1a65e60ae04b", "simistorelocator_id": "a444f850-774f-4423-8d73-f770078ae6f2", "zoom_level": 14, "longitude": 105.78981845602479}, {"store_name": "\u0110\u00ecnh An H\u00f2a", "image": "", "description": "", "address": "40 ph\u1ed1 Tr\u1ea7n Qu\u00fd C\u00e1p", "city": "6", "phuong": "181", "loai_hinh": "", "xep_hang": "", "le_hoi": "", "coordinates": "20.984568590542523, 105.78981845602479", "latitude": 20.984568590542523, "link_web": "", "id_detail": "1a7670e3-121b-488d-941a-1fb9ff5f5b2f", "simistorelocator_id": "623641e0-f64b-489a-9f91-c4d678e32d95", "zoom_level": 14, "longitude": 105.78981845602479}, {"store_name": "\u0110\u00ecnh L\u01b0\u01a1ng S\u1eed (\u0111\u00ecnh H\u00e0ng \u0110\u0169a, \u0111\u00ecnh H\u00e0ng C\u00e0)", "image": "", "description": "", "address": "26A ph\u1ed1 Tr\u1ea7n Qu\u00fd C\u00e1p", "city": "6", "phuong": "181", "loai_hinh": "", "xep_hang": "", "le_hoi": "", "coordinates": "21.026463515127457, 105.83632195946231", "latitude": 21.026463515127457, "link_web": "", "id_detail": "c11a872e-1e27-44f1-b3d3-d2f667a15f06", "simistorelocator_id": "9c99aa3b-88cd-4af1-8143-6dc26457e25d", "zoom_level": 14, "longitude": 105.83632195946231}, {"store_name": "\u0110\u00ecnh Thanh Mi\u1ebfn", "image": "", "description": "", "address": "20 Thanh Mi\u1ebfn", "city": "6", "phuong": "181", "loai_hinh": "", "xep_hang": "", "le_hoi": "", "coordinates": "21.03034242760822, 105.83760195603824", "latitude": 21.03034242760822, "link_web": "", "id_detail": "910bf1b0-d618-440c-9fa3-467432aae1ac", "simistorelocator_id": "99879b72-8c9b-4bca-8c00-53373be510ac", "zoom_level": 14, "longitude": 105.83760195603824}, {"store_name": "B\u1ec7nh vi\u1ec7n B\u1ea1ch Mai", "image": "", "description": "", "address": "", "city": "6", "phuong": "232", "loai_hinh": "", "xep_hang": "", "le_hoi": "", "coordinates": "21.000973136522877, 105.84080604068681", "latitude": 21.000973136522877, "link_web": "", "id_detail": "926b1a47-b2b9-4511-a5cc-92bd8849b0ba", "simistorelocator_id": "a8eb6fcb-3d5b-46a7-8cf9-2c464cf6ed82", "zoom_level": 14, "longitude": 105.84080604068681}, {"store_name": "\u0110\u00ecnh B\u00e3i", "image": "", "description": "", "address": "", "city": "268", "phuong": "10117", "loai_hinh": "", "xep_hang": "", "le_hoi": "", "coordinates": "21.236766646936104, 105.76461640609926", "latitude": 21.236766646936104, "link_web": "", "id_detail": "b287c6c2-de25-4413-9e01-e7929f9e7850", "simistorelocator_id": "c8a6332a-72f4-4043-9385-e5121a58a665", "zoom_level": 14, "longitude": 105.76461640609926}, {"store_name": "\u0110\u00ecnh Ho\u00e0ng Trung", "image": "", "description": "", "address": "", "city": "268", "phuong": "10117", "loai_hinh": "", "xep_hang": "", "le_hoi": "", "coordinates": "20.80794968063235, 105.78656989768979", "latitude": 20.80794968063235, "link_web": "", "id_detail": "a97f43a3-f92a-4672-a897-820372207614", "simistorelocator_id": "a5e8307d-a803-4a52-8ac9-b3f21c2e8909", "zoom_level": 14, "longitude": 105.78656989768979}, {"store_name": "Ch\u00f9a Nh\u00e2n hu\u1ec7 (Mai Hoa T\u1ef1)", "image": "", "description": "", "address": "", "city": "268", "phuong": "10117", "loai_hinh": "", "xep_hang": "", "le_hoi": "", "coordinates": "20.93502837342104, 105.73302558669593", "latitude": 20.93502837342104, "link_web": "", "id_detail": "57c76fa7-b992-44a0-96ed-f56cc64502dc", "simistorelocator_id": "1f4ef372-7b72-4146-9ebe-1b2048c5c3e1", "zoom_level": 14, "longitude": 105.73302558669593}, {"store_name": "Ch\u00f9a Nh\u00e2n \u0110\u1ea1o (Nh\u00e2n Kh\u00e1nh S\u01a1n t\u1ef1)", "image": "", "description": "", "address": "", "city": "268", "phuong": "10117", "loai_hinh": "", "xep_hang": "", "le_hoi": "", "coordinates": "12.647392866891318, 109.04802034853049", "latitude": 12.647392866891318, "link_web": "", "id_detail": "fc19e45b-d1b7-4575-a275-b21955317525", "simistorelocator_id": "fb852e23-1e01-45a9-a83f-eef201462d5f", "zoom_level": 14, "longitude": 109.04802034853049}, {"store_name": "Ch\u00f9a V\u0129nh Kh\u00e1nh (C\u1ea3nh Linh t\u1ef1)", "image": "", "description": "", "address": "", "city": "268", "phuong": "10117", "loai_hinh": "", "xep_hang": "", "le_hoi": "", "coordinates": "21.04182295960274, 105.81912852535595", "latitude": 21.04182295960274, "link_web": "", "id_detail": "a6da7983-9cdc-42bb-a595-ab74e037dba7", "simistorelocator_id": "00156cdd-f2d2-46eb-b43d-7b66aa079b8a", "zoom_level": 14, "longitude": 105.81912852535595}, {"store_name": "Ch\u00f9a Y\u00ean Ph\u00fac", "image": "", "description": "", "address": "", "city": "268", "phuong": "10123", "loai_hinh": "", "xep_hang": "", "le_hoi": "", "coordinates": "20.971662947415002, 105.787717256021", "latitude": 20.971662947415002, "link_web": "", "id_detail": "ae1d5b27-5f3d-4415-a367-24df3b271c44", "simistorelocator_id": "5a4929f5-2b89-4e8a-8b92-8052379601bd", "zoom_level": 14, "longitude": 105.787717256021}, {"store_name": "\u0110\u00ecnh Giang L\u1ebb", "image": "", "description": "", "address": "", "city": "268", "phuong": "10123", "loai_hinh": "", "xep_hang": "", "le_hoi": "", "coordinates": "20.9316409769725, 105.72035787135212", "latitude": 20.9316409769725, "link_web": "", "id_detail": "5561bba2-ac76-493b-abc2-75b3593afd99", "simistorelocator_id": "2623c040-6458-4c9a-9152-18d69c886710", "zoom_level": 14, "longitude": 105.72035787135212}, {"store_name": "Qu\u00e1n R\u1ea1ng \u0110\u00f4ng", "image": "", "description": "", "address": "", "city": "268", "phuong": "10123", "loai_hinh": "", "xep_hang": "", "le_hoi": "", "coordinates": "20.99141379801068, 105.80761461739802", "latitude": 20.99141379801068, "link_web": "", "id_detail": "afbc48b2-faac-41ec-833d-1e211d4b5c1b", "simistorelocator_id": "24455f7e-1c67-4582-8279-3bc4c171d992", "zoom_level": 14, "longitude": 105.80761461739802}, {"store_name": "\u0110\u00ecnh R\u1ea1ng \u0110\u00f4ng", "image": "", "description": "", "address": "", "city": "268", "phuong": "10123", "loai_hinh": "", "xep_hang": "", "le_hoi": "", "coordinates": "20.990613133482114, 105.80768287931242", "latitude": 20.990613133482114, "link_web": "", "id_detail": "514a8c02-962b-4e92-b544-398d023a9ef1", "simistorelocator_id": "28593ed3-163a-4d9c-96c2-eafe96cef056", "zoom_level": 14, "longitude": 105.80768287931242}, {"store_name": "\u0110\u00ecnh Ph\u00fac Ti\u1ebfn", "image": "", "description": "", "address": "", "city": "268", "phuong": "10123", "loai_hinh": "", "xep_hang": "", "le_hoi": "", "coordinates": "20.73820569721997, 105.93385647269989", "latitude": 20.73820569721997, "link_web": "", "id_detail": "6531bfb2-a540-4209-aff8-abaf436d0b01", "simistorelocator_id": "4cb1b617-a361-4562-9365-87fcacf4df93", "zoom_level": 14, "longitude": 105.93385647269989}, {"store_name": "\u0110\u00ecnh An Th\u1eafng", "image": "", "description": "", "address": "", "city": "268", "phuong": "10123", "loai_hinh": "", "xep_hang": "", "le_hoi": "", "coordinates": "20.930491533805398, 105.70719542532329", "latitude": 20.930491533805398, "link_web": "", "id_detail": "182672c4-4fd5-4484-b06a-5aaac90a578d", "simistorelocator_id": "b0788434-c069-437f-aea2-8cd0816f93d4", "zoom_level": 14, "longitude": 105.70719542532329}, {"store_name": "\u0110\u00ecnh An Ph\u01b0\u1ee3ng", "image": "", "description": "", "address": "", "city": "268", "phuong": "10123", "loai_hinh": "", "xep_hang": "", "le_hoi": "", "coordinates": "20.954816480522467, 105.7131170829984", "latitude": 20.954816480522467, "link_web": "", "id_detail": "3d9ee864-296b-42c8-9acf-39d4eeba6f42", "simistorelocator_id": "abe91833-8ef0-444d-9a24-801da5708fe4", "zoom_level": 14, "longitude": 105.7131170829984}, {"store_name": "\u0110\u00ecnh Giang Ch\u00ednh", "image": "", "description": "", "address": "", "city": "268", "phuong": "10123", "loai_hinh": "", "xep_hang": "", "le_hoi": "", "coordinates": "20.930035291910958, 105.72393693272282", "latitude": 20.930035291910958, "link_web": "", "id_detail": "2afe7bcd-e8cd-49ab-aad8-b9b4ab33a568", "simistorelocator_id": "e48ad3a5-172a-425c-91bb-c1e4968dbb2d", "zoom_level": 14, "longitude": 105.72393693272282}, {"store_name": "Mi\u1ebfu C\u1ea7u \u0110\u01a1", "image": "", "description": "", "address": "", "city": "268", "phuong": "9556", "loai_hinh": "", "xep_hang": "", "le_hoi": "", "coordinates": "20.968789012267553, 105.77551145602013", "latitude": 20.968789012267553, "link_web": "", "id_detail": "ba08a4b6-732c-4326-80a4-7521fd3092f6", "simistorelocator_id": "1597c7ae-6a30-4d5e-9c42-e460d20706ce", "zoom_level": 14, "longitude": 105.77551145602013}, {"store_name": "Mi\u1ebfu C\u1ea7u \u0110\u01a1 (H\u1ed9 Qu\u1ed1c t\u1ef1)", "image": "", "description": "", "address": "", "city": "268", "phuong": "9556", "loai_hinh": "", "xep_hang": "", "le_hoi": "", "coordinates": "20.967839029899388, 105.77575829321746", "latitude": 20.967839029899388, "link_web": "", "id_detail": "26234d74-9462-4803-91d6-ab89ac210b51", "simistorelocator_id": "d10d4f89-730e-4100-be92-51e518381254", "zoom_level": 14, "longitude": 105.77575829321746}, {"store_name": "\u0110\u00ecnh \u0110a S\u1ef9", "image": "", "description": "", "address": "", "city": "268", "phuong": "9565", "loai_hinh": "", "xep_hang": "", "le_hoi": "", "coordinates": "20.961131759040978, 105.7864922713608", "latitude": 20.961131759040978, "link_web": "", "id_detail": "b47ebc82-9887-44e0-94eb-3b93022fc13e", "simistorelocator_id": "09b4a316-e457-44cd-b975-5450c47e4c9a", "zoom_level": 14, "longitude": 105.7864922713608}, {"store_name": "\u0110\u00ecnh M\u1eadu L\u01b0\u01a1ng", "image": "", "description": "", "address": "", "city": "268", "phuong": "9565", "loai_hinh": "", "xep_hang": "", "le_hoi": "", "coordinates": "20.958696674974608, 105.79339385601722", "latitude": 20.958696674974608, "link_web": "", "id_detail": "062d969c-782e-4917-b213-808c670436bb", "simistorelocator_id": "5186fe1d-e7dd-4b28-8d65-c403e1343418", "zoom_level": 14, "longitude": 105.79339385601722}, {"store_name": "Mi\u1ebfu V\u0103n N\u1ed9i", "image": "", "description": "", "address": "", "city": "268", "phuong": "9571", "loai_hinh": "", "xep_hang": "", "le_hoi": "", "coordinates": "20.944416584090536, 105.76422217359097", "latitude": 20.944416584090536, "link_web": "", "id_detail": "49c6e643-1d89-4e7a-8432-7fbb4e4cfa6a", "simistorelocator_id": "45a9d9d9-b249-4afc-95cc-0ad3ef061fbb", "zoom_level": 14, "longitude": 105.76422217359097}, {"store_name": "\u0110\u00ecnh \u0110\u1ed9ng L\u00e3m (\u0111\u00ecnh \u00d3)", "image": "", "description": "", "address": "", "city": "268", "phuong": "9571", "loai_hinh": "", "xep_hang": "", "le_hoi": "", "coordinates": "20.932129791286908, 105.76535632532375", "latitude": 20.932129791286908, "link_web": "", "id_detail": "d0f3789c-8635-4d85-980b-5999e3144b2a", "simistorelocator_id": "9942447c-05c7-4f21-bdb1-c326bba88e5d", "zoom_level": 14, "longitude": 105.76535632532375}, {"store_name": "C\u1ed5ng l\u00e0ng Nh\u00e2n Tr\u1ea1ch", "image": "", "description": "", "address": "", "city": "268", "phuong": "9571", "loai_hinh": "", "xep_hang": "", "le_hoi": "", "coordinates": "20.941957849974944, 105.76480142135513", "latitude": 20.941957849974944, "link_web": "", "id_detail": "2f1e0279-16af-426b-925a-493a05c46011", "simistorelocator_id": "38d92175-9a29-471f-a625-39b416830a56", "zoom_level": 14, "longitude": 105.76480142135513}, {"store_name": "Nh\u1edd th\u1edd h\u1ecd Tr\u1ecbnh", "image": "", "description": "", "address": "", "city": "268", "phuong": "9571", "loai_hinh": "", "xep_hang": "", "le_hoi": "", "coordinates": "20.916134926960034, 105.74053085600475", "latitude": 20.916134926960034, "link_web": "", "id_detail": "57f9699d-a172-42b4-ab80-fd1cfb2566d1", "simistorelocator_id": "ab421df0-6cd5-42de-a856-ec828b1834b2", "zoom_level": 14, "longitude": 105.74053085600475}, {"store_name": "Mi\u1ebfu Quang L\u00e3m", "image": "", "description": "", "address": "", "city": "268", "phuong": "9568", "loai_hinh": "", "xep_hang": "", "le_hoi": "", "coordinates": "20.945368084360535, 105.75801648532493", "latitude": 20.945368084360535, "link_web": "", "id_detail": "b903ea8c-142b-44dd-b590-eb3e1e2a8e01", "simistorelocator_id": "74a09e87-b558-4972-bc06-1ec970279f19", "zoom_level": 14, "longitude": 105.75801648532493}, {"store_name": "C\u1ed5ng l\u00e0ng Quang L\u00e3m", "image": "", "description": "", "address": "", "city": "268", "phuong": "9568", "loai_hinh": "", "xep_hang": "", "le_hoi": "", "coordinates": "20.944566490797737, 105.76024808315171", "latitude": 20.944566490797737, "link_web": "", "id_detail": "bc808663-6c2f-4c90-ad5a-f3819d4c954f", "simistorelocator_id": "1d0b5e13-6f33-4ec6-9dc5-047f5760fe0f", "zoom_level": 14, "longitude": 105.76024808315171}, {"store_name": "Nh\u00e0 l\u01b0u ni\u1ec7m B\u00e1c H\u1ed3", "image": "", "description": "", "address": "", "city": "268", "phuong": "Ph\u01b0\u1eddng V\u0103n Kh\u00ea", "loai_hinh": "", "xep_hang": "", "le_hoi": "", "coordinates": "20.96132086018676, 105.76979465601798", "latitude": 20.96132086018676, "link_web": "", "id_detail": "e3c03ed4-2baf-4890-a33f-c9652908a51d", "simistorelocator_id": "133113e0-dcc3-4c30-9c63-11b9d6e39c17", "zoom_level": 14, "longitude": 105.76979465601798}, {"store_name": "\u0110\u1ec1n Bia B\u00e0", "image": "", "description": "", "address": "", "city": "268", "phuong": "Ph\u01b0\u1eddng V\u0103n Kh\u00ea", "loai_hinh": "", "xep_hang": "", "le_hoi": "", "coordinates": "20.97068271878235, 105.76098707136347", "latitude": 20.97068271878235, "link_web": "", "id_detail": "58a66fd6-3f56-4250-a396-4a65a7dee2ba", "simistorelocator_id": "96c3f975-a1a7-48e0-9a6f-2e8c98002f38", "zoom_level": 14, "longitude": 105.76098707136347}, {"store_name": "Ch\u00f9a H\u00f2a B\u00ecnh (Linh \u1ee8ng t\u1ef1)", "image": "", "description": "", "address": "", "city": "268", "phuong": "9562", "loai_hinh": "", "xep_hang": "", "le_hoi": "", "coordinates": "20.912341224545013, 105.80353165600361", "latitude": 20.912341224545013, "link_web": "", "id_detail": "77ded734-37d9-4b67-929e-994d620c0565", "simistorelocator_id": "efe12c06-4159-4b14-a78f-c0894793ed96", "zoom_level": 14, "longitude": 105.80353165600361}, {"store_name": "Ch\u00f9a Y\u00ean L\u1ed9", "image": "", "description": "", "address": "", "city": "268", "phuong": "9562", "loai_hinh": "", "xep_hang": "", "le_hoi": "", "coordinates": "20.954642052467143, 105.73254685601597", "latitude": 20.954642052467143, "link_web": "", "id_detail": "b81819ba-ca6d-4578-9352-a46c7886e943", "simistorelocator_id": "20d598e9-6277-407b-918f-728a63675b2c", "zoom_level": 14, "longitude": 105.73254685601597}, {"store_name": "Nh\u00e0 l\u01b0u ni\u1ec7m danh nh\u00e2n L\u00ea Tr\u1ecdng T\u1ea5n", "image": "", "description": "", "address": "", "city": "268", "phuong": "9562", "loai_hinh": "", "xep_hang": "", "le_hoi": "", "coordinates": "20.949307272177876, 105.74369641092302", "latitude": 20.949307272177876, "link_web": "", "id_detail": "c8bdc107-8c8a-4931-90c1-bb585a751321", "simistorelocator_id": "911d6bd5-f3b5-483d-8be4-8ea561b73bd5", "zoom_level": 14, "longitude": 105.74369641092302}, {"store_name": "Ch\u00f9a La D\u01b0\u01a1ng", "image": "", "description": "", "address": "", "city": "268", "phuong": "9886", "loai_hinh": "", "xep_hang": "", "le_hoi": "", "coordinates": "20.992787066924983, 105.74016800205568", "latitude": 20.992787066924983, "link_web": "", "id_detail": "20ae086c-b7d0-44f8-8377-0583aa0bfbde", "simistorelocator_id": "a3b20562-02af-437f-8333-51ae56662151", "zoom_level": 14, "longitude": 105.74016800205568}, {"store_name": "Nh\u00e0 th\u1edd h\u1ecd \u0110\u1eb7ng", "image": "", "description": "", "address": "", "city": "268", "phuong": "9886", "loai_hinh": "", "xep_hang": "", "le_hoi": "", "coordinates": "20.95139918615035, 105.80720463747362", "latitude": 20.95139918615035, "link_web": "", "id_detail": "dde7736c-9687-4555-bfd7-f241c0bb1655", "simistorelocator_id": "46538a9c-2f30-4a98-9b5e-fe13e80409c0", "zoom_level": 14, "longitude": 105.80720463747362}, {"store_name": "Ch\u00f9a \u1ef6 La (La \u00c2m)", "image": "", "description": "", "address": "", "city": "268", "phuong": "9886", "loai_hinh": "", "xep_hang": "", "le_hoi": "", "coordinates": "20.97884076141307, 105.7471997560231", "latitude": 20.97884076141307, "link_web": "", "id_detail": "5104cdc9-01f6-40bf-b3b9-709cae95cbee", "simistorelocator_id": "a8ff59fc-b245-412a-8a63-568f518eb559", "zoom_level": 14, "longitude": 105.7471997560231}, {"store_name": "V\u0103n ch\u1ec9 La N\u1ed9i", "image": "", "description": "", "address": "", "city": "268", "phuong": "9886", "loai_hinh": "", "xep_hang": "", "le_hoi": "", "coordinates": "20.98113496699798, 105.74795715945217", "latitude": 20.98113496699798, "link_web": "", "id_detail": "1157ff36-f282-4973-8307-75b077106cec", "simistorelocator_id": "591c6c22-eeb2-44e7-8b17-eb7e612c3d02", "zoom_level": 14, "longitude": 105.74795715945217}, {"store_name": "\u0110\u00ecnh L\u01b0\u01a1ng Y\u00ean", "image": "", "description": "", "address": "S\u1ed1 5 ph\u1ed1 L\u01b0\u01a1ng Y\u00ean", "city": "7", "phuong": "244", "loai_hinh": "", "xep_hang": "", "le_hoi": "", "coordinates": "21.01019927170988, 105.85955855603228", "latitude": 21.01019927170988, "link_web": "", "id_detail": "8c121ed6-2b36-43d9-a4c9-c8719fe6146a", "simistorelocator_id": "6ad168eb-4ac8-4f96-87a5-d184918c4690", "zoom_level": 14, "longitude": 105.85955855603228}, {"store_name": "\u0110\u1ec1n B\u00e0 T\u1ec5u", "image": "", "description": "", "address": "264 Tr\u1ea7n Kh\u00e1t Ch\u00e2n", "city": "7", "phuong": "244", "loai_hinh": "", "xep_hang": "", "le_hoi": "", "coordinates": "21.01004658528628, 105.8645994560323", "latitude": 21.01004658528628, "link_web": "", "id_detail": "ab399013-5985-4ba4-9b49-95e1b956d2c7", "simistorelocator_id": "60816666-602f-4d83-888f-69462d2ab543", "zoom_level": 14, "longitude": 105.8645994560323}, {"store_name": "\u0110\u1ec1n th\u1edd Tr\u1ea7n H\u01b0ng \u0110\u1ea1o", "image": "", "description": "", "address": "S\u1ed1 3 ph\u1ed1 L\u01b0\u01a1ng Y\u00ean", "city": "7", "phuong": "244", "loai_hinh": "", "xep_hang": "", "le_hoi": "", "coordinates": "21.027301045618092, 105.84118275603736", "latitude": 21.027301045618092, "link_web": "", "id_detail": "5f51c0e2-efbe-4949-a43e-7bf28a4cf217", "simistorelocator_id": "f841e5bb-e300-45db-bb58-e73b4c4e8473", "zoom_level": 14, "longitude": 105.84118275603736}, {"store_name": "Mi\u1ebfu Vua B\u00e0", "image": "", "description": "", "address": "S\u1ed1 3 ph\u1ed1 L\u01b0\u01a1ng Y\u00ean", "city": "7", "phuong": "244", "loai_hinh": "", "xep_hang": "", "le_hoi": "", "coordinates": "21.00001597224113, 105.66329394068647", "latitude": 21.00001597224113, "link_web": "", "id_detail": "6abaadfe-d38a-484f-80aa-36faea10b761", "simistorelocator_id": "aa49d5d6-6c00-4137-a236-03db594016f9", "zoom_level": 14, "longitude": 105.66329394068647}, {"store_name": "\u0110\u00ecnh C\u1ea5m Ch\u1ec9", "image": "", "description": "", "address": "10 T\u00f4 Hi\u1ebfn Th\u00e0nh", "city": "7", "phuong": "Ph\u01b0\u1eddng B\u00f9i Th\u1ecb Xu\u00e2n", "loai_hinh": "", "xep_hang": "", "le_hoi": "", "coordinates": "21.030455369020657, 105.84353612535256", "latitude": 21.030455369020657, "link_web": "", "id_detail": "ca4ca9b6-4cb7-4069-b230-3a034d4039c6", "simistorelocator_id": "ac6aaaf4-56db-4a98-8bf5-109c88b3db2f", "zoom_level": 14, "longitude": 105.84353612535256}, {"store_name": "\u0110\u00ecnh \u0110\u1ed3ng T\u00e2m", "image": "", "description": "", "address": "87 Tri\u1ec7u Vi\u1ec7t V\u01b0\u01a1ng", "city": "7", "phuong": "Ph\u01b0\u1eddng B\u00f9i Th\u1ecb Xu\u00e2n", "loai_hinh": "", "xep_hang": "", "le_hoi": "", "coordinates": "20.80704629012142, 105.67332671386421", "latitude": 20.80704629012142, "link_web": "", "id_detail": "2274949c-4e6b-4ed4-aacd-cc6804bad354", "simistorelocator_id": "2dd17379-7664-42a8-92b8-2eb37ce84f81", "zoom_level": 14, "longitude": 105.67332671386421}, {"store_name": "\u0110\u00ecnh Ph\u1ee5c C\u1ed5", "image": "", "description": "", "address": "16 Nguy\u1ec5n Du", "city": "7", "phuong": "Ph\u01b0\u1eddng B\u00f9i Th\u1ecb Xu\u00e2n", "loai_hinh": "", "xep_hang": "", "le_hoi": "", "coordinates": "21.29852331429624, 105.12427125611755", "latitude": 21.29852331429624, "link_web": "", "id_detail": "b3d325d4-1ab7-4dd7-9239-9cb691e5b23d", "simistorelocator_id": "6892a314-619e-4e86-b0c5-ac807ac9038d", "zoom_level": 14, "longitude": 105.12427125611755}, {"store_name": "Ch\u00f9a \u0110\u00f4ng T\u00e2n", "image": "", "description": "", "address": "87 Tri\u1ec7u Vi\u1ec7t V\u01b0\u01a1ng", "city": "7", "phuong": "Ph\u01b0\u1eddng B\u00f9i Th\u1ecb Xu\u00e2n", "loai_hinh": "", "xep_hang": "", "le_hoi": "", "coordinates": "21.0158143745358, 105.85056201000549", "latitude": 21.0158143745358, "link_web": "", "id_detail": "846e4a1c-2bf0-480c-9058-d43fde8aae2f", "simistorelocator_id": "604a797c-7bd1-4d34-a052-60fb642fca68", "zoom_level": 14, "longitude": 105.85056201000549}, {"store_name": "Ch\u00f9a Tr\u00e0ng An (Tr\u00e0ng An t\u1ef1)", "image": "", "description": "", "address": "s\u1ed1 4 ng\u00f5 Tr\u00e0ng An", "city": "7", "phuong": "Ph\u01b0\u1eddng B\u00f9i Th\u1ecb Xu\u00e2n", "loai_hinh": "", "xep_hang": "", "le_hoi": "", "coordinates": "21.021459016808212, 105.8506900967809", "latitude": 21.021459016808212, "link_web": "", "id_detail": "b84a8d3c-ebb5-4341-91dc-bc6e1f320c26", "simistorelocator_id": "27c75e46-e237-4080-aa34-de83fe5c8fa6", "zoom_level": 14, "longitude": 105.8506900967809}, {"store_name": "Nh\u00e0 41 B\u00f9i Th\u1ecb Xu\u00e2n", "image": "", "description": "", "address": "41 B\u00f9i Th\u1ecb Xu\u00e2n", "city": "7", "phuong": "Ph\u01b0\u1eddng B\u00f9i Th\u1ecb Xu\u00e2n", "loai_hinh": "", "xep_hang": "", "le_hoi": "", "coordinates": "21.017407001886962, 105.8499906713773", "latitude": 21.017407001886962, "link_web": "", "id_detail": "d7359598-41da-4c36-8a31-2b7aa81d4e82", "simistorelocator_id": "40cb0c4c-8a86-4f9f-b63d-03f375b001f5", "zoom_level": 14, "longitude": 105.8499906713773}, {"store_name": "Nh\u00e0 47 Tr\u1ea7n Nh\u00e2n T\u00f4ng", "image": "", "description": "", "address": "47 Tr\u1ea7n Nh\u00e2n T\u00f4ng", "city": "7", "phuong": "Ph\u01b0\u1eddng B\u00f9i Th\u1ecb Xu\u00e2n", "loai_hinh": "", "xep_hang": "", "le_hoi": "", "coordinates": "21.01774804178064, 105.84974578672022", "latitude": 21.01774804178064, "link_web": "", "id_detail": "0ef51928-5bef-4e6a-b5ff-7caec414f3d0", "simistorelocator_id": "55a5f333-e4af-40f5-8113-524a586c8286", "zoom_level": 14, "longitude": 105.84974578672022}, {"store_name": "Nh\u00e0 18 Nguy\u1ec5n Du", "image": "", "description": "", "address": "18 Nguy\u1ec5n Du", "city": "7", "phuong": "Ph\u01b0\u1eddng B\u00f9i Th\u1ecb Xu\u00e2n", "loai_hinh": "", "xep_hang": "", "le_hoi": "", "coordinates": "21.019769190208052, 105.85055282534948", "latitude": 21.019769190208052, "link_web": "", "id_detail": "4cad0510-95f9-4c15-b7a9-7c5be735261c", "simistorelocator_id": "4a2c43d4-8f2f-4bd1-9394-1d64dc9a0429", "zoom_level": 14, "longitude": 105.85055282534948}, {"store_name": "Ch\u00f9a M\u1ee9t", "image": "", "description": "", "address": "307 ph\u1ed1 B\u1ea1ch Mai", "city": "7", "phuong": "286", "loai_hinh": "", "xep_hang": "", "le_hoi": "", "coordinates": "21.043244921786, 105.84727599971121", "latitude": 21.043244921786, "link_web": "", "id_detail": "17592a69-e129-4db5-ae11-05b6ef580419", "simistorelocator_id": "263521f5-011b-4d2c-997c-3aea669f6a11", "zoom_level": 14, "longitude": 105.84727599971121}, {"store_name": "Ch\u00f9a Mai H\u01b0\u01a1ng (M\u1ee9t)", "image": "", "description": "", "address": "T\u1ed5 18", "city": "7", "phuong": "286", "loai_hinh": "", "xep_hang": "", "le_hoi": "", "coordinates": "21.001901066908353, 105.85153439465842", "latitude": 21.001901066908353, "link_web": "", "id_detail": "cfe987ba-e627-4411-96b6-172adda20fee", "simistorelocator_id": "1848652a-608f-4644-a3be-d8346f441bdb", "zoom_level": 14, "longitude": 105.85153439465842}, {"store_name": "Nh\u00e0 307 ph\u1ed1 B\u1ea1ch Mai", "image": "", "description": "", "address": "T\u1ed5 18", "city": "7", "phuong": "286", "loai_hinh": "", "xep_hang": "", "le_hoi": "", "coordinates": "21.00255182760972, 105.85077532534444", "latitude": 21.00255182760972, "link_web": "", "id_detail": "949fdd79-8135-4c6a-a54c-58c1e8db175a", "simistorelocator_id": "4749334f-8f3e-41f6-8911-fa386340555e", "zoom_level": 14, "longitude": 105.85077532534444}, {"store_name": "\u0110\u00ecnh \u0110\u00f4ng", "image": "", "description": "", "address": "129 B\u1ea1ch Mai", "city": "7", "phuong": "274", "loai_hinh": "", "xep_hang": "", "le_hoi": "", "coordinates": "21.007266853871105, 105.85196247137424", "latitude": 21.007266853871105, "link_web": "", "id_detail": "5374a427-ac1d-4151-abcc-e24fbee69c40", "simistorelocator_id": "5588eed4-a8fa-47f8-88a9-0039964a5ca5", "zoom_level": 14, "longitude": 105.85196247137424}, {"store_name": "\u0110\u00ecnh T\u00f4 Ho\u00e0ng", "image": "", "description": "", "address": "Ng\u00f5 T\u00f4 Ho\u00e0ng", "city": "7", "phuong": "274", "loai_hinh": "", "xep_hang": "", "le_hoi": "", "coordinates": "21.00588233596874, 105.85111975603101", "latitude": 21.00588233596874, "link_web": "", "id_detail": "9b73ba12-ab6b-4950-ab82-a12e30276c0f", "simistorelocator_id": "e030e59d-75dd-4c39-a22f-12f2a78cdb43", "zoom_level": 14, "longitude": 105.85111975603101}, {"store_name": "Ch\u00f9a T\u00f4 Ho\u00e0ng", "image": "", "description": "", "address": "Ng\u00f5 T\u00f4 Ho\u00e0ng", "city": "7", "phuong": "274", "loai_hinh": "", "xep_hang": "", "le_hoi": "", "coordinates": "21.007585249187205, 105.84932865603157", "latitude": 21.007585249187205, "link_web": "", "id_detail": "7cb7e9e3-8fc8-4c7c-95a1-7e80549d6db3", "simistorelocator_id": "9a52eb6c-afc7-4b9f-a237-061fba47d160", "zoom_level": 14, "longitude": 105.84932865603157}, {"store_name": "\u0110\u1ec1n H\u01b0\u01a1ng Tuy\u1ebft", "image": "", "description": "", "address": "Ng\u00f5 205 B\u1ea1ch Mai", "city": "7", "phuong": "274", "loai_hinh": "", "xep_hang": "", "le_hoi": "", "coordinates": "21.005120682821627, 105.85120558425693", "latitude": 21.005120682821627, "link_web": "", "id_detail": "7a578b19-890a-41bc-9718-e7f50775be18", "simistorelocator_id": "be594d1a-bc01-4df1-8b4d-c904b82b172a", "zoom_level": 14, "longitude": 105.85120558425693}, {"store_name": "\u0110\u1ec1n T\u00f4 Ho\u00e0ng (\u0111i\u1ec7n \u0111\u1ee9c th\u00e1nh Tr\u1ea7n)", "image": "", "description": "", "address": "Ng\u00f5 T\u00f4 Ho\u00e0ng", "city": "7", "phuong": "274", "loai_hinh": "", "xep_hang": "", "le_hoi": "", "coordinates": "21.00588233596874, 105.85111975603101", "latitude": 21.00588233596874, "link_web": "", "id_detail": "dd100bbc-c5f8-4c94-bcab-14d4a014a50e", "simistorelocator_id": "846e8d46-6268-4cd8-9ec5-6eda8c282367", "zoom_level": 14, "longitude": 105.85111975603101}, {"store_name": "Nh\u00e0 152 B\u1ea1ch Mai", "image": "", "description": "", "address": "Ph\u1ed1 B\u1ea1ch Mai", "city": "7", "phuong": "274", "loai_hinh": "", "xep_hang": "", "le_hoi": "", "coordinates": "21.00635814267844, 105.85093349465993", "latitude": 21.00635814267844, "link_web": "", "id_detail": "585100b3-dc4d-461c-b7c1-f7bdaaf9de43", "simistorelocator_id": "1c6b2388-8b96-4513-8cd5-00023c9e5f29", "zoom_level": 14, "longitude": 105.85093349465993}, {"store_name": "\u0110\u00ecnh C\u1ea3m \u1ee8ng", "image": "", "description": "", "address": "55 Nguy\u1ec5n C\u00f4ng Tr\u1ee9", "city": "7", "phuong": "259", "loai_hinh": "", "xep_hang": "", "le_hoi": "", "coordinates": "21.01318169082253, 105.81036277137605", "latitude": 21.01318169082253, "link_web": "", "id_detail": "ee566118-743e-4dee-a9d8-43e27e762d99", "simistorelocator_id": "2c1f5354-f4c3-43ba-b7c4-d32cd21e9384", "zoom_level": 14, "longitude": 105.81036277137605}, {"store_name": "\u0110\u00ecnh C\u1ea3m H\u1ed9i", "image": "", "description": "", "address": "132 ph\u1ed1 L\u00f2 \u0110\u00fac", "city": "7", "phuong": "265", "loai_hinh": "", "xep_hang": "", "le_hoi": "", "coordinates": "21.01233505323971, 105.86050941000437", "latitude": 21.01233505323971, "link_web": "", "id_detail": "f112d474-f7a0-4b1f-84ac-1d394e21a716", "simistorelocator_id": "330c56c1-b7c1-47d1-b098-77eaaca7ded2", "zoom_level": 14, "longitude": 105.86050941000437}, {"store_name": "\u0110\u00ecnh Th\u1ec3 Giao", "image": "", "description": "", "address": "s\u1ed1 3 ph\u1ed1 Th\u1ec3 Giao", "city": "7", "phuong": "256", "loai_hinh": "", "xep_hang": "", "le_hoi": "", "coordinates": "21.015954417308937, 105.84795105603393", "latitude": 21.015954417308937, "link_web": "", "id_detail": "2af4eebc-8f48-45aa-8045-4d5f4f65061d", "simistorelocator_id": "1967df5c-f5c2-4b57-87b8-2030d26fc4d2", "zoom_level": 14, "longitude": 105.84795105603393}, {"store_name": "\u0110\u00ecnh \u0110\u00f4ng H\u1ea1", "image": "", "description": "", "address": "Ph\u01b0\u1eddng L\u00ea \u0110\u1ea1i H\u00e0nh", "city": "7", "phuong": "256", "loai_hinh": "", "xep_hang": "", "le_hoi": "", "coordinates": "21.015706797132644, 105.85164504069105", "latitude": 21.015706797132644, "link_web": "", "id_detail": "f1df806a-5991-4d0b-81ee-18cd3e099fac", "simistorelocator_id": "0a4076b1-e713-45fd-a12b-b45df7c182d5", "zoom_level": 14, "longitude": 105.85164504069105}, {"store_name": "\u0110\u1ec1n V\u00e2n H\u1ed3", "image": "", "description": "", "address": "T\u1ed5 56", "city": "7", "phuong": "256", "loai_hinh": "", "xep_hang": "", "le_hoi": "", "coordinates": "21.012380825747186, 105.84881262314563", "latitude": 21.012380825747186, "link_web": "", "id_detail": "7136e623-566d-4846-908a-d0b5fca7c9b6", "simistorelocator_id": "bde1d278-dfa9-4567-8fda-f1dde9b69ddc", "zoom_level": 14, "longitude": 105.84881262314563}, {"store_name": "\u0110\u00ecnh V\u00e2n H\u1ed3", "image": "", "description": "", "address": "", "city": "7", "phuong": "256", "loai_hinh": "", "xep_hang": "", "le_hoi": "", "coordinates": "21.011724434271603, 105.84584900206113", "latitude": 21.011724434271603, "link_web": "", "id_detail": "5a5cc580-1117-4245-a45a-2c237045a061", "simistorelocator_id": "c3043e79-db13-460f-88b8-cf08d8e14958", "zoom_level": 14, "longitude": 105.84584900206113}, {"store_name": "Ch\u00f9a \u0110\u00f4ng H\u1ea1", "image": "", "description": "", "address": "S\u1ed1 48 ph\u1ed1 L\u00ea \u0110\u1ea1i H\u00e0nh", "city": "7", "phuong": "256", "loai_hinh": "", "xep_hang": "", "le_hoi": "", "coordinates": "21.017569533271413, 105.85138442201261", "latitude": 21.017569533271413, "link_web": "", "id_detail": "8ab36b62-3f88-4c6f-80b7-557a92c5a0a9", "simistorelocator_id": "527be9ac-0292-48da-92ca-0cfc005cd3a3", "zoom_level": 14, "longitude": 105.85138442201261}, {"store_name": "\u0110\u00ecnh Qu\u1ef3nh L\u00f4i", "image": "", "description": "", "address": "Ng\u00f5 H\u00f2a B\u00ecnh 7 Minh Khai", "city": "21", "phuong": "613", "loai_hinh": "", "xep_hang": "", "le_hoi": "", "coordinates": "20.997130256028182, 105.8560042480854", "latitude": 20.997130256028182, "link_web": "", "id_detail": "d46607e6-f702-49b1-ab52-c86596d8d80c", "simistorelocator_id": "0225e3d5-bb32-4cf8-a3f1-167967d4c36b", "zoom_level": 14, "longitude": 105.8560042480854}, {"store_name": "\u0110\u1ec1n H\u01b0ng K\u00fd", "image": "", "description": "", "address": "Ng\u00f5 226 t\u1ed5 2 Minh Khai", "city": "21", "phuong": "613", "loai_hinh": "", "xep_hang": "", "le_hoi": "", "coordinates": "20.995318568442805, 105.85467180999947", "latitude": 20.995318568442805, "link_web": "", "id_detail": "2dfb23c9-55e7-432f-8b16-6d532d4796e0", "simistorelocator_id": "285b9d8e-c6a6-42e0-883d-8f2d5f86ac30", "zoom_level": 14, "longitude": 105.85467180999947}, {"store_name": "\u0110\u1ec1n C\u00e2y Qu\u1ebf", "image": "", "description": "", "address": "Ng\u00f5 193 Minh Khai", "city": "21", "phuong": "613", "loai_hinh": "", "xep_hang": "", "le_hoi": "", "coordinates": "21.011971674412855, 105.80870554069004", "latitude": 21.011971674412855, "link_web": "", "id_detail": "a19b23b4-22ad-4460-9e29-a8f46e8dede1", "simistorelocator_id": "9704b19a-1524-40dd-a9a4-8e37ba3a3d6b", "zoom_level": 14, "longitude": 105.80870554069004}, {"store_name": "H\u01b0ng K\u00fd trang", "image": "", "description": "", "address": "225 Minh Khai", "city": "21", "phuong": "613", "loai_hinh": "", "xep_hang": "", "le_hoi": "", "coordinates": "20.994670431192517, 105.85478284055202", "latitude": 20.994670431192517, "link_web": "", "id_detail": "2be6b719-a8de-451a-ba2f-fc52d69ff317", "simistorelocator_id": "80e345f1-a1a1-4792-9caa-90f0513fd8b6", "zoom_level": 14, "longitude": 105.85478284055202}, {"store_name": "\u0110\u00ecnh Gi\u00e1o Ph\u01b0\u1eddng", "image": "", "description": "", "address": "S\u1ed1 83B ph\u1ed1 Hu\u1ebf", "city": "7", "phuong": "Ph\u01b0\u1eddng Ng\u00f4 Th\u00ec Nh\u1eadm", "loai_hinh": "", "xep_hang": "", "le_hoi": "", "coordinates": "21.015714053272127, 105.84777939466267", "latitude": 21.015714053272127, "link_web": "", "id_detail": "158596c3-4f45-4019-ba53-75d29f9fed9d", "simistorelocator_id": "6e3d4ec7-9dcd-4cb0-9dea-42310d4c376f", "zoom_level": 14, "longitude": 105.84777939466267}, {"store_name": "\u0110\u00ecnh Ph\u01b0\u01a1ng Vi\u00ean", "image": "", "description": "", "address": "S\u1ed1 1-3 Tr\u1ea7n Xu\u00e2n So\u1ea1n", "city": "7", "phuong": "Ph\u01b0\u1eddng Ng\u00f4 Th\u00ec Nh\u1eadm", "loai_hinh": "", "xep_hang": "", "le_hoi": "", "coordinates": "21.012970310706244, 105.69822018215876", "latitude": 21.012970310706244, "link_web": "", "id_detail": "e7c65a11-638d-4771-acc3-31764a89f49f", "simistorelocator_id": "a4b1618b-9c8b-4075-ac87-a614afaa57d1", "zoom_level": 14, "longitude": 105.69822018215876}, {"store_name": "Ch\u00f9a Ph\u01b0\u01a1ng Vi\u00ean (H\u1ed3ng \u0110\u1ee9c t\u1ef1)", "image": "", "description": "", "address": "S\u1ed1 4 Tr\u1ea7n Xu\u00e2n So\u1ea1n", "city": "7", "phuong": "Ph\u01b0\u1eddng Ng\u00f4 Th\u00ec Nh\u1eadm", "loai_hinh": "", "xep_hang": "", "le_hoi": "", "coordinates": "21.01184576108355, 105.69906561000433", "latitude": 21.01184576108355, "link_web": "", "id_detail": "0c378673-f969-4ec1-ad52-c1a58c62f9a4", "simistorelocator_id": "1f002655-a101-443c-9843-e8f5aedbd135", "zoom_level": 14, "longitude": 105.69906561000433}, {"store_name": "Th\u00e1nh Th\u1ea5t th\u1ee7 \u0111\u00f4", "image": "", "description": "", "address": "48 H\u00f2a M\u00e3", "city": "7", "phuong": "Ph\u01b0\u1eddng Ng\u00f4 Th\u00ec Nh\u1eadm", "loai_hinh": "", "xep_hang": "", "le_hoi": "", "coordinates": "21.016481431161036, 105.85438094069133", "latitude": 21.016481431161036, "link_web": "", "id_detail": "20a5d1b5-925c-48ec-8e1b-bdddeffdbebb", "simistorelocator_id": "1702219f-0642-4df1-a020-7ef342bf74e1", "zoom_level": 14, "longitude": 105.85438094069133},